{
  "Copenhagen, Denmark": {
    "locationLatitude": 55.704438,
    "locationLongitude": 12.502119,
    "locationCity": "Copenhagen",
    "locationCountry": "Denmark",
    "locationTimezoneName": "Europe/Copenhagen",
    "locationTimezoneOffetSec": 3600,
    "locationTimezoneOffsetString": "+01:00"
  },
  "London, England": {
    "locationLatitude": 51.509648,
    "locationLongitude": -0.099076,
    "locationCity": "London",
    "locationCountry": "United Kingdom",
    "locationTimezoneName": "Europe/London",
    "locationTimezoneOffetSec": 0,
    "locationTimezoneOffsetString": "+00:00"
  },
  "New York City, NY": {
    "locationLatitude": 40.68295,
    "locationLongitude": -73.9708,
    "locationCity": "New York",
    "locationCountry": "United States",
    "locationTimezoneName": "America/New_York",
    "locationTimezoneOffetSec": -18000,
    "locationTimezoneOffsetString": "-05:00"
  },
  "New York": {
    "locationLatitude": 40.68295,
    "locationLongitude": -73.9708,
    "locationCity": "New York",
    "locationCountry": "United States",
    "locationTimezoneName": "America/New_York",
    "locationTimezoneOffetSec": -18000,
    "locationTimezoneOffsetString": "-05:00"
  },
  "Singapore, Singapore": {
    "locationLatitude": 1.316382,
    "locationLongitude": 103.833828,
    "locationCity": "Singapore",
    "locationCountry": "Singapore",
    "locationTimezoneName": "Asia/Singapore",
    "locationTimezoneOffetSec": 28800,
    "locationTimezoneOffsetString": "+08:00"
  },
  "New York City, New York": {
    "locationLatitude": 40.68295,
    "locationLongitude": -73.9708,
    "locationCity": "New York",
    "locationCountry": "United States",
    "locationTimezoneName": "America/New_York",
    "locationTimezoneOffetSec": -18000,
    "locationTimezoneOffsetString": "-05:00"
  },
  "Canberra, Australia": {
    "locationLatitude": -35.470057,
    "locationLongitude": 148.954507,
    "locationCity": "Australian Capital Territory",
    "locationCountry": "Australia",
    "locationTimezoneName": "Australia/Sydney",
    "locationTimezoneOffetSec": 39600,
    "locationTimezoneOffsetString": "+11:00"
  },
  "Sydney, Australia": {
    "locationLatitude": -33.868633,
    "locationLongitude": 151.209421,
    "locationCity": "Sydney",
    "locationCountry": "Australia",
    "locationTimezoneName": "Australia/Sydney",
    "locationTimezoneOffetSec": 39600,
    "locationTimezoneOffsetString": "+11:00"
  },
  "Melbourne, Australia": {
    "locationLatitude": -37.825071,
    "locationLongitude": 144.978682,
    "locationCity": "Melbourne",
    "locationCountry": "Australia",
    "locationTimezoneName": "Australia/Melbourne",
    "locationTimezoneOffetSec": 39600,
    "locationTimezoneOffsetString": "+11:00"
  },
  "Berlin, Germany": {
    "locationLatitude": 52.524932,
    "locationLongitude": 13.407032,
    "locationCity": "Berlin",
    "locationCountry": "Germany",
    "locationTimezoneName": "Europe/Berlin",
    "locationTimezoneOffetSec": 3600,
    "locationTimezoneOffsetString": "+01:00"
  },
  "Frankfurt, Germany": {
    "locationLatitude": 50.041821,
    "locationLongitude": 8.584764,
    "locationCity": "Frankfurt",
    "locationCountry": "Germany",
    "locationTimezoneName": "Europe/Busingen",
    "locationTimezoneOffetSec": 3600,
    "locationTimezoneOffsetString": "+01:00"
  },
  "Amsterdam, Netherlands": {
    "locationLatitude": 52.37243,
    "locationLongitude": 4.89973,
    "locationCity": "Amsterdam",
    "locationCountry": "Netherlands",
    "locationTimezoneName": "Europe/Amsterdam",
    "locationTimezoneOffetSec": 3600,
    "locationTimezoneOffsetString": "+01:00"
  },
  "Paris, France": {
    "locationLatitude": 48.858705,
    "locationLongitude": 2.342865,
    "locationCity": "Paris",
    "locationCountry": "France",
    "locationTimezoneName": "Europe/Paris",
    "locationTimezoneOffetSec": 3600,
    "locationTimezoneOffsetString": "+01:00"
  },
  "New York, New York": {
    "locationLatitude": 40.68295,
    "locationLongitude": -73.9708,
    "locationCity": "New York",
    "locationCountry": "United States",
    "locationTimezoneName": "America/New_York",
    "locationTimezoneOffetSec": -18000,
    "locationTimezoneOffsetString": "-05:00"
  },
  "Portland, Oregon": {
    "locationLatitude": 45.533467,
    "locationLongitude": -122.650095,
    "locationCity": "Portland",
    "locationCountry": "United States",
    "locationTimezoneName": "America/Boise",
    "locationTimezoneOffetSec": -25200,
    "locationTimezoneOffsetString": "-07:00"
  },
  "Chicago, Illinois": {
    "locationLatitude": 41.87897,
    "locationLongitude": -87.66063,
    "locationCity": "Chicago",
    "locationCountry": "United States",
    "locationTimezoneName": "America/Chicago",
    "locationTimezoneOffetSec": -21600,
    "locationTimezoneOffsetString": "-06:00"
  },
  "Chicago, Illinois, United States": {
    "locationLatitude": 41.87897,
    "locationLongitude": -87.66063,
    "locationCity": "Chicago",
    "locationCountry": "United States",
    "locationTimezoneName": "America/Chicago",
    "locationTimezoneOffetSec": -21600,
    "locationTimezoneOffsetString": "-06:00"
  },
  "Los Angeles, California": {
    "locationLatitude": 34.05513,
    "locationLongitude": -118.25703,
    "locationCity": "Los Angeles",
    "locationCountry": "United States",
    "locationTimezoneName": "America/Los_Angeles",
    "locationTimezoneOffetSec": -28800,
    "locationTimezoneOffsetString": "-08:00"
  },
  "San Francisco, California": {
    "locationLatitude": 37.778008,
    "locationLongitude": -122.431272,
    "locationCity": "San Francisco",
    "locationCountry": "United States",
    "locationTimezoneName": "America/Los_Angeles",
    "locationTimezoneOffetSec": -28800,
    "locationTimezoneOffsetString": "-08:00"
  },
  "United States, California, Irvine": {
    "locationLatitude": 33.672421,
    "locationLongitude": -117.764394,
    "locationCity": "Irvine",
    "locationCountry": "United States",
    "locationTimezoneName": "America/Los_Angeles",
    "locationTimezoneOffetSec": -28800,
    "locationTimezoneOffsetString": "-08:00"
  },
  "United States, California, Palo Alto": {
    "locationLatitude": 37.431169,
    "locationLongitude": -122.127302,
    "locationCity": "Palo Alto",
    "locationCountry": "United States",
    "locationTimezoneName": "America/Los_Angeles",
    "locationTimezoneOffetSec": -28800,
    "locationTimezoneOffsetString": "-08:00"
  },
  "United States, Illinois, Normal": {
    "locationLatitude": 41.87897,
    "locationLongitude": -87.66063,
    "locationCity": "Chicago",
    "locationCountry": "United States",
    "locationTimezoneName": "America/Chicago",
    "locationTimezoneOffetSec": -21600,
    "locationTimezoneOffsetString": "-06:00"
  },
  "United States, Michigan, Plymouth": {
    "locationLatitude": 50.393988,
    "locationLongitude": -4.113637,
    "locationCity": "Plymouth",
    "locationCountry": "United Kingdom",
    "locationTimezoneName": "Europe/London",
    "locationTimezoneOffetSec": 0,
    "locationTimezoneOffsetString": "+00:00"
  },
  "United States, California, Los Angeles": {
    "locationLatitude": 39.715956,
    "locationLongitude": -96.999668,
    "locationCity": "United States",
    "locationCountry": "United States",
    "locationTimezoneName": "America/Denver",
    "locationTimezoneOffetSec": -25200,
    "locationTimezoneOffsetString": "-07:00"
  },
  "United States, Washington, Seattle": {
    "locationLatitude": 47.673455,
    "locationLongitude": -122.331537,
    "locationCity": "Seattle",
    "locationCountry": "United States",
    "locationTimezoneName": "America/Boise",
    "locationTimezoneOffetSec": -25200,
    "locationTimezoneOffsetString": "-07:00"
  },
  "San Francisco, CA": {
    "locationLatitude": 37.778008,
    "locationLongitude": -122.431272,
    "locationCity": "San Francisco",
    "locationCountry": "United States",
    "locationTimezoneName": "America/Los_Angeles",
    "locationTimezoneOffetSec": -28800,
    "locationTimezoneOffsetString": "-08:00"
  },
  "Toronto, Ontario, Canada": {
    "locationLatitude": 43.64877,
    "locationLongitude": -79.38171,
    "locationCity": "Toronto",
    "locationCountry": "Canada",
    "locationTimezoneName": "America/Toronto",
    "locationTimezoneOffetSec": -18000,
    "locationTimezoneOffsetString": "-05:00"
  },
  "Mexico City, Mexico": {
    "locationLatitude": 19.371422,
    "locationLongitude": -99.150344,
    "locationCity": "Mexico City",
    "locationCountry": "Mexico",
    "locationTimezoneName": "America/Mexico_City",
    "locationTimezoneOffetSec": -21600,
    "locationTimezoneOffsetString": "-06:00"
  },
  "Pleasanton, California, USA HQ": {
    "locationLatitude": 37.669437,
    "locationLongitude": -121.885889,
    "locationCity": "Pleasanton",
    "locationCountry": "United States",
    "locationTimezoneName": "America/Los_Angeles",
    "locationTimezoneOffetSec": -28800,
    "locationTimezoneOffsetString": "-08:00"
  },
  "South San Francisco": {
    "locationLatitude": 37.653515,
    "locationLongitude": -122.344612,
    "locationCity": "South San Francisco",
    "locationCountry": "United States",
    "locationTimezoneName": "America/Los_Angeles",
    "locationTimezoneOffetSec": -28800,
    "locationTimezoneOffsetString": "-08:00"
  },
  "Austin": {
    "locationLatitude": 30.222346,
    "locationLongitude": -97.836521,
    "locationCity": "Austin",
    "locationCountry": "United States",
    "locationTimezoneName": "America/Denver",
    "locationTimezoneOffetSec": -25200,
    "locationTimezoneOffsetString": "-07:00"
  },
  "Dallas": {
    "locationLatitude": 32.736212,
    "locationLongitude": -96.784359,
    "locationCity": "Dallas",
    "locationCountry": "United States",
    "locationTimezoneName": "America/Indiana/Vincennes",
    "locationTimezoneOffetSec": -18000,
    "locationTimezoneOffsetString": "-05:00"
  },
  "Chicago": {
    "locationLatitude": 41.87897,
    "locationLongitude": -87.66063,
    "locationCity": "Chicago",
    "locationCountry": "United States",
    "locationTimezoneName": "America/Chicago",
    "locationTimezoneOffetSec": -21600,
    "locationTimezoneOffsetString": "-06:00"
  },
  "Atlanta": {
    "locationLatitude": 33.769805,
    "locationLongitude": -84.414581,
    "locationCity": "Atlanta",
    "locationCountry": "United States",
    "locationTimezoneName": "America/Kentucky/Monticello",
    "locationTimezoneOffetSec": -18000,
    "locationTimezoneOffsetString": "-05:00"
  },
  "Washington DC": {
    "locationLatitude": 38.82652,
    "locationLongitude": -77.01712,
    "locationCity": "Washington",
    "locationCountry": "United States",
    "locationTimezoneName": "America/New_York",
    "locationTimezoneOffetSec": -18000,
    "locationTimezoneOffsetString": "-05:00"
  },
  "Boston": {
    "locationLatitude": 42.355492,
    "locationLongitude": -71.048611,
    "locationCity": "Boston",
    "locationCountry": "United States",
    "locationTimezoneName": "America/New_York",
    "locationTimezoneOffetSec": -18000,
    "locationTimezoneOffsetString": "-05:00"
  },
  "Tel Aviv": {
    "locationLatitude": 32.066455,
    "locationLongitude": 34.783553,
    "locationCity": "Tel Aviv",
    "locationCountry": "Israel",
    "locationTimezoneName": "Asia/Jerusalem",
    "locationTimezoneOffetSec": 7200,
    "locationTimezoneOffsetString": "+02:00"
  },
  "New York City": {
    "locationLatitude": 40.68295,
    "locationLongitude": -73.9708,
    "locationCity": "New York",
    "locationCountry": "United States",
    "locationTimezoneName": "America/New_York",
    "locationTimezoneOffetSec": -18000,
    "locationTimezoneOffsetString": "-05:00"
  },
  "Washington D.C.": {
    "locationLatitude": 38.82652,
    "locationLongitude": -77.01712,
    "locationCity": "Washington",
    "locationCountry": "United States",
    "locationTimezoneName": "America/New_York",
    "locationTimezoneOffetSec": -18000,
    "locationTimezoneOffsetString": "-05:00"
  },
  "Paris": {
    "locationLatitude": 48.858705,
    "locationLongitude": 2.342865,
    "locationCity": "Paris",
    "locationCountry": "France",
    "locationTimezoneName": "Europe/Paris",
    "locationTimezoneOffetSec": 3600,
    "locationTimezoneOffsetString": "+01:00"
  },
  "Los Angeles": {
    "locationLatitude": 34.05513,
    "locationLongitude": -118.25703,
    "locationCity": "Los Angeles",
    "locationCountry": "United States",
    "locationTimezoneName": "America/Los_Angeles",
    "locationTimezoneOffetSec": -28800,
    "locationTimezoneOffsetString": "-08:00"
  },
  "San Diego": {
    "locationLatitude": 32.72793,
    "locationLongitude": -117.15529,
    "locationCity": "San Diego",
    "locationCountry": "United States",
    "locationTimezoneName": "America/Los_Angeles",
    "locationTimezoneOffetSec": -28800,
    "locationTimezoneOffsetString": "-08:00"
  },
  "San Fransisco": {
    "locationLatitude": 37.778008,
    "locationLongitude": -122.431272,
    "locationCity": "San Francisco",
    "locationCountry": "United States",
    "locationTimezoneName": "America/Los_Angeles",
    "locationTimezoneOffetSec": -28800,
    "locationTimezoneOffsetString": "-08:00"
  },
  "San Francisco": {
    "locationLatitude": 37.778008,
    "locationLongitude": -122.431272,
    "locationCity": "San Francisco",
    "locationCountry": "United States",
    "locationTimezoneName": "America/Los_Angeles",
    "locationTimezoneOffetSec": -28800,
    "locationTimezoneOffsetString": "-08:00"
  },
  "Bengaluru": {
    "locationLatitude": 12.96557,
    "locationLongitude": 77.60625,
    "locationCity": "Bangalore",
    "locationCountry": "India",
    "locationTimezoneName": "Asia/Kolkata",
    "locationTimezoneOffetSec": 19800,
    "locationTimezoneOffsetString": "+05:30"
  },
  "London": {
    "locationLatitude": 51.509648,
    "locationLongitude": -0.099076,
    "locationCity": "London",
    "locationCountry": "United Kingdom",
    "locationTimezoneName": "Europe/London",
    "locationTimezoneOffetSec": 0,
    "locationTimezoneOffsetString": "+00:00"
  },
  "Dublin": {
    "locationLatitude": 53.33928,
    "locationLongitude": -6.281314,
    "locationCity": "Dublin",
    "locationCountry": "Ireland",
    "locationTimezoneName": "Europe/Dublin",
    "locationTimezoneOffetSec": 0,
    "locationTimezoneOffsetString": "+00:00"
  },
  "Berlin": {
    "locationLatitude": 52.524932,
    "locationLongitude": 13.407032,
    "locationCity": "Berlin",
    "locationCountry": "Germany",
    "locationTimezoneName": "Europe/Berlin",
    "locationTimezoneOffetSec": 3600,
    "locationTimezoneOffsetString": "+01:00"
  },
  "Madrid": {
    "locationLatitude": 40.429913,
    "locationLongitude": -3.669245,
    "locationCity": "Madrid",
    "locationCountry": "Spain",
    "locationTimezoneName": "Europe/Madrid",
    "locationTimezoneOffetSec": 3600,
    "locationTimezoneOffsetString": "+01:00"
  },
  "Amsterdam": {
    "locationLatitude": 52.37243,
    "locationLongitude": 4.89973,
    "locationCity": "Amsterdam",
    "locationCountry": "Netherlands",
    "locationTimezoneName": "Europe/Amsterdam",
    "locationTimezoneOffetSec": 3600,
    "locationTimezoneOffsetString": "+01:00"
  },
  "Barcelona": {
    "locationLatitude": 41.400347,
    "locationLongitude": 2.159592,
    "locationCity": "Barcelona",
    "locationCountry": "Spain",
    "locationTimezoneName": "Europe/Madrid",
    "locationTimezoneOffetSec": 3600,
    "locationTimezoneOffsetString": "+01:00"
  },
  "São Paulo": {
    "locationLatitude": -23.570533,
    "locationLongitude": -46.663713,
    "locationCity": "São Paulo",
    "locationCountry": "Brazil",
    "locationTimezoneName": "America/Sao_Paulo",
    "locationTimezoneOffetSec": -10800,
    "locationTimezoneOffsetString": "-03:00"
  },
  "Brazil": {
    "locationLatitude": -11.928923,
    "locationLongitude": -49.542449,
    "locationCity": "Brazil",
    "locationCountry": "Brazil",
    "locationTimezoneName": "America/Araguaina",
    "locationTimezoneOffetSec": -10800,
    "locationTimezoneOffsetString": "-03:00"
  },
  "Düsseldorf": {
    "locationLatitude": 51.226297,
    "locationLongitude": 6.801324,
    "locationCity": "Dusseldorf",
    "locationCountry": "Germany",
    "locationTimezoneName": "Europe/Busingen",
    "locationTimezoneOffetSec": 3600,
    "locationTimezoneOffsetString": "+01:00"
  },
  "Frankfurt": {
    "locationLatitude": 50.041821,
    "locationLongitude": 8.584764,
    "locationCity": "Frankfurt",
    "locationCountry": "Germany",
    "locationTimezoneName": "Europe/Busingen",
    "locationTimezoneOffetSec": 3600,
    "locationTimezoneOffsetString": "+01:00"
  },
  "Hamburg": {
    "locationLatitude": 53.576158,
    "locationLongitude": 10.007046,
    "locationCity": "Hamburg",
    "locationCountry": "Germany",
    "locationTimezoneName": "Europe/Berlin",
    "locationTimezoneOffetSec": 3600,
    "locationTimezoneOffsetString": "+01:00"
  },
  "Munich": {
    "locationLatitude": 48.152126,
    "locationLongitude": 11.544467,
    "locationCity": "Munich",
    "locationCountry": "Germany",
    "locationTimezoneName": "Europe/Busingen",
    "locationTimezoneOffetSec": 3600,
    "locationTimezoneOffsetString": "+01:00"
  },
  "Stuttgart": {
    "locationLatitude": 48.70631,
    "locationLongitude": 9.11924,
    "locationCity": "Stuttgart",
    "locationCountry": "Germany",
    "locationTimezoneName": "Europe/Busingen",
    "locationTimezoneOffetSec": 3600,
    "locationTimezoneOffsetString": "+01:00"
  },
  "Stockholm": {
    "locationLatitude": 59.275254,
    "locationLongitude": 18.035164,
    "locationCity": "Stockholm",
    "locationCountry": "Sweden",
    "locationTimezoneName": "Europe/Stockholm",
    "locationTimezoneOffetSec": 3600,
    "locationTimezoneOffsetString": "+01:00"
  },
  "Rome": {
    "locationLatitude": 41.878243,
    "locationLongitude": 12.52809,
    "locationCity": "Rome",
    "locationCountry": "Italy",
    "locationTimezoneName": "Europe/Rome",
    "locationTimezoneOffetSec": 3600,
    "locationTimezoneOffsetString": "+01:00"
  },
  "Milan": {
    "locationLatitude": 45.473702,
    "locationLongitude": 9.170685,
    "locationCity": "Milan",
    "locationCountry": "Italy",
    "locationTimezoneName": "Europe/Rome",
    "locationTimezoneOffetSec": 3600,
    "locationTimezoneOffsetString": "+01:00"
  },
  "Mexico City": {
    "locationLatitude": 19.371422,
    "locationLongitude": -99.150344,
    "locationCity": "Mexico City",
    "locationCountry": "Mexico",
    "locationTimezoneName": "America/Mexico_City",
    "locationTimezoneOffetSec": -21600,
    "locationTimezoneOffsetString": "-06:00"
  },
  "San Francisco ": {
    "locationLatitude": 37.778008,
    "locationLongitude": -122.431272,
    "locationCity": "San Francisco",
    "locationCountry": "United States",
    "locationTimezoneName": "America/Los_Angeles",
    "locationTimezoneOffetSec": -28800,
    "locationTimezoneOffsetString": "-08:00"
  },
  "United States,": {
    "locationLatitude": 39.715956,
    "locationLongitude": -96.999668,
    "locationCity": "United States",
    "locationCountry": "United States",
    "locationTimezoneName": "America/Denver",
    "locationTimezoneOffetSec": -25200,
    "locationTimezoneOffsetString": "-07:00"
  },
  "United States -": {
    "locationLatitude": 39.715956,
    "locationLongitude": -96.999668,
    "locationCity": "United States",
    "locationCountry": "United States",
    "locationTimezoneName": "America/Denver",
    "locationTimezoneOffetSec": -25200,
    "locationTimezoneOffsetString": "-07:00"
  },
  "North America": {
    "locationLatitude": 38.309137,
    "locationLongitude": -101.328273,
    "locationCity": "North America",
    "locationCountry": null,
    "locationTimezoneName": "America/Denver",
    "locationTimezoneOffetSec": -25200,
    "locationTimezoneOffsetString": "-07:00"
  },
  "United States": {
    "locationLatitude": 39.715956,
    "locationLongitude": -96.999668,
    "locationCity": "United States",
    "locationCountry": "United States",
    "locationTimezoneName": "America/Denver",
    "locationTimezoneOffetSec": -25200,
    "locationTimezoneOffsetString": "-07:00"
  },
  "Canada": {
    "locationLatitude": 58.33747,
    "locationLongitude": -112.384858,
    "locationCity": "Canada",
    "locationCountry": "Canada",
    "locationTimezoneName": "America/Yellowknife",
    "locationTimezoneOffetSec": -25200,
    "locationTimezoneOffsetString": "-07:00"
  },
  "Phoenix": {
    "locationLatitude": 33.60503,
    "locationLongitude": -112.070892,
    "locationCity": "Phoenix",
    "locationCountry": "United States",
    "locationTimezoneName": "America/Phoenix",
    "locationTimezoneOffetSec": -25200,
    "locationTimezoneOffsetString": "-07:00"
  },
  "EMEA": {
    "locationLatitude": -2.2145,
    "locationLongitude": 121.5984,
    "locationCity": "Emea",
    "locationCountry": "Indonesia",
    "locationTimezoneName": "Asia/Makassar",
    "locationTimezoneOffetSec": 28800,
    "locationTimezoneOffsetString": "+08:00"
  },
  "United Kingdom": {
    "locationLatitude": 52.418788,
    "locationLongitude": -1.247349,
    "locationCity": "United Kingdom",
    "locationCountry": "United Kingdom",
    "locationTimezoneName": "Europe/London",
    "locationTimezoneOffetSec": 0,
    "locationTimezoneOffsetString": "+00:00"
  },
  "Serbia -": {
    "locationLatitude": 44.251791,
    "locationLongitude": 20.589197,
    "locationCity": "Serbia",
    "locationCountry": "Serbia",
    "locationTimezoneName": "Europe/Belgrade",
    "locationTimezoneOffetSec": 3600,
    "locationTimezoneOffsetString": "+01:00"
  },
  "Romania -": {
    "locationLatitude": 45.727469,
    "locationLongitude": 24.984652,
    "locationCity": "Romania",
    "locationCountry": "Romania",
    "locationTimezoneName": "Europe/Bucharest",
    "locationTimezoneOffetSec": 7200,
    "locationTimezoneOffsetString": "+02:00"
  },
  "Bulgaria -": {
    "locationLatitude": 42.501868,
    "locationLongitude": 25.176846,
    "locationCity": "Bulgaria",
    "locationCountry": "Bulgaria",
    "locationTimezoneName": "Europe/Sofia",
    "locationTimezoneOffetSec": 7200,
    "locationTimezoneOffsetString": "+02:00"
  },
  "New York -": {
    "locationLatitude": 40.68295,
    "locationLongitude": -73.9708,
    "locationCity": "New York",
    "locationCountry": "United States",
    "locationTimezoneName": "America/New_York",
    "locationTimezoneOffetSec": -18000,
    "locationTimezoneOffsetString": "-05:00"
  },
  "Dearborn, MI": {
    "locationLatitude": 42.305765,
    "locationLongitude": -83.226264,
    "locationCity": "Dearborn",
    "locationCountry": "United States",
    "locationTimezoneName": "America/Detroit",
    "locationTimezoneOffetSec": -18000,
    "locationTimezoneOffsetString": "-05:00"
  },
  "Pittsburgh, PA": {
    "locationLatitude": 40.450509,
    "locationLongitude": -79.936305,
    "locationCity": "Pittsburgh",
    "locationCountry": "United States",
    "locationTimezoneName": "America/Detroit",
    "locationTimezoneOffetSec": -18000,
    "locationTimezoneOffsetString": "-05:00"
  },
  "Miami, FL": {
    "locationLatitude": 25.766368,
    "locationLongitude": -80.210268,
    "locationCity": "Miami",
    "locationCountry": "United States",
    "locationTimezoneName": "America/Kentucky/Monticello",
    "locationTimezoneOffetSec": -18000,
    "locationTimezoneOffsetString": "-05:00"
  },
  "Munich, Germany": {
    "locationLatitude": 48.152126,
    "locationLongitude": 11.544467,
    "locationCity": "Munich",
    "locationCountry": "Germany",
    "locationTimezoneName": "Europe/Busingen",
    "locationTimezoneOffetSec": 3600,
    "locationTimezoneOffsetString": "+01:00"
  },
  "Metro Detroit, MI": {
    "locationLatitude": 42.572926,
    "locationLongitude": -82.796632,
    "locationCountry": "United States",
    "locationTimezoneName": "America/Detroit",
    "locationTimezoneOffetSec": -18000,
    "locationTimezoneOffsetString": "-05:00"
  },
  "- US": {
    "locationLatitude": 39.715956,
    "locationLongitude": -96.999668,
    "locationCity": "United States",
    "locationCountry": "United States",
    "locationTimezoneName": "America/Denver",
    "locationTimezoneOffetSec": -25200,
    "locationTimezoneOffsetString": "-07:00"
  },
  "Guadalajara, MX": {
    "locationLatitude": 20.673618,
    "locationLongitude": -103.351266,
    "locationCity": "Guadalajara",
    "locationCountry": "Mexico",
    "locationTimezoneName": "America/Bahia_Banderas",
    "locationTimezoneOffetSec": -21600,
    "locationTimezoneOffsetString": "-06:00"
  },
  "Scottsdale, AZ": {
    "locationLatitude": 33.687647,
    "locationLongitude": -111.856562,
    "locationCity": "Scottsdale",
    "locationCountry": "United States",
    "locationTimezoneName": "America/Phoenix",
    "locationTimezoneOffetSec": -25200,
    "locationTimezoneOffsetString": "-07:00"
  },
  "Phoenix Headquarters": {
    "locationLatitude": 33.44858,
    "locationLongitude": -112.08199,
    "locationCountry": "United States",
    "locationTimezoneName": "America/Phoenix",
    "locationTimezoneOffetSec": -25200,
    "locationTimezoneOffsetString": "-07:00"
  },
  "Pheonix, AZ": {
    "locationLatitude": 40.402387,
    "locationLongitude": 47.210994,
    "locationCity": "Azerbaijan",
    "locationCountry": "Azerbaijan",
    "locationTimezoneName": "Asia/Baku",
    "locationTimezoneOffetSec": 14400,
    "locationTimezoneOffsetString": "+04:00"
  },
  "Heath, OH": {
    "locationLatitude": 40.02888,
    "locationLongitude": -82.44719,
    "locationCity": "Heath",
    "locationCountry": "United States",
    "locationTimezoneName": "America/Detroit",
    "locationTimezoneOffetSec": -18000,
    "locationTimezoneOffsetString": "-05:00"
  },
  "Cleveland, OH": {
    "locationLatitude": 41.496551,
    "locationLongitude": -81.65133,
    "locationCity": "Cleveland",
    "locationCountry": "United States",
    "locationTimezoneName": "America/Detroit",
    "locationTimezoneOffetSec": -18000,
    "locationTimezoneOffsetString": "-05:00"
  },
  "Phoenix, AZ": {
    "locationLatitude": 33.60503,
    "locationLongitude": -112.070892,
    "locationCity": "Phoenix",
    "locationCountry": "United States",
    "locationTimezoneName": "America/Phoenix",
    "locationTimezoneOffetSec": -25200,
    "locationTimezoneOffsetString": "-07:00"
  },
  "Atlanta, GA": {
    "locationLatitude": 33.769805,
    "locationLongitude": -84.414581,
    "locationCity": "Atlanta",
    "locationCountry": "United States",
    "locationTimezoneName": "America/Kentucky/Monticello",
    "locationTimezoneOffetSec": -18000,
    "locationTimezoneOffsetString": "-05:00"
  },
  "Tempe, AZ": {
    "locationLatitude": 33.403229,
    "locationLongitude": -111.923357,
    "locationCity": "Tempe",
    "locationCountry": "United States",
    "locationTimezoneName": "America/Phoenix",
    "locationTimezoneOffetSec": -25200,
    "locationTimezoneOffsetString": "-07:00"
  },
  "Palo Alto": {
    "locationLatitude": 37.431169,
    "locationLongitude": -122.127302,
    "locationCity": "Palo Alto",
    "locationCountry": "United States",
    "locationTimezoneName": "America/Los_Angeles",
    "locationTimezoneOffetSec": -28800,
    "locationTimezoneOffsetString": "-08:00"
  },
  "CA": {
    "locationLatitude": 36.531544,
    "locationLongitude": -119.586168,
    "locationCity": "California",
    "locationCountry": "United States",
    "locationTimezoneName": "America/Los_Angeles",
    "locationTimezoneOffetSec": -28800,
    "locationTimezoneOffsetString": "-08:00"
  },
  "Detroit": {
    "locationLatitude": 42.398649,
    "locationLongitude": -83.164515,
    "locationCity": "Detroit",
    "locationCountry": "United States",
    "locationTimezoneName": "America/Detroit",
    "locationTimezoneOffetSec": -18000,
    "locationTimezoneOffsetString": "-05:00"
  },
  "MI": {
    "locationLatitude": 43.924812,
    "locationLongitude": -84.633107,
    "locationCity": "Michigan",
    "locationCountry": "United States",
    "locationTimezoneName": "America/Detroit",
    "locationTimezoneOffetSec": -18000,
    "locationTimezoneOffsetString": "-05:00"
  },
  "PA": {
    "locationLatitude": 40.860198,
    "locationLongitude": -77.838617,
    "locationCity": "Pennsylvania",
    "locationCountry": "United States",
    "locationTimezoneName": "America/New_York",
    "locationTimezoneOffetSec": -18000,
    "locationTimezoneOffsetString": "-05:00"
  },
  "Dearborn": {
    "locationLatitude": 42.305765,
    "locationLongitude": -83.226264,
    "locationCity": "Dearborn",
    "locationCountry": "United States",
    "locationTimezoneName": "America/Detroit",
    "locationTimezoneOffetSec": -18000,
    "locationTimezoneOffsetString": "-05:00"
  },
  "Pittsburgh": {
    "locationLatitude": 40.450509,
    "locationLongitude": -79.936305,
    "locationCity": "Pittsburgh",
    "locationCountry": "United States",
    "locationTimezoneName": "America/Detroit",
    "locationTimezoneOffetSec": -18000,
    "locationTimezoneOffsetString": "-05:00"
  },
  "TX": {
    "locationLatitude": 31.030974,
    "locationLongitude": -98.326329,
    "locationCity": "Texas",
    "locationCountry": "United States",
    "locationTimezoneName": "America/Denver",
    "locationTimezoneOffetSec": -25200,
    "locationTimezoneOffsetString": "-07:00"
  },
  "Miami": {
    "locationLatitude": 10.96389,
    "locationLongitude": -74.79639,
    "locationCity": "Barranquilla",
    "locationCountry": "Colombia",
    "locationTimezoneName": "America/Bogota",
    "locationTimezoneOffetSec": -18000,
    "locationTimezoneOffsetString": "-05:00"
  },
  "FL": {
    "locationLatitude": 27.97762,
    "locationLongitude": -81.769611,
    "locationCity": "Florida",
    "locationCountry": "United States",
    "locationTimezoneName": "America/Kentucky/Monticello",
    "locationTimezoneOffetSec": -18000,
    "locationTimezoneOffsetString": "-05:00"
  },
  "Germany": {
    "locationLatitude": 50.970097,
    "locationLongitude": 9.687096,
    "locationCity": "Germany",
    "locationCountry": "Germany",
    "locationTimezoneName": "Europe/Berlin",
    "locationTimezoneOffetSec": 3600,
    "locationTimezoneOffsetString": "+01:00"
  },
  "Metro Detroit": {
    "locationLatitude": 41.222489,
    "locationLongitude": -95.837824,
    "locationCountry": "United States",
    "locationTimezoneName": "America/Chicago",
    "locationTimezoneOffetSec": -21600,
    "locationTimezoneOffsetString": "-06:00"
  },
  "San Diego, CA": {
    "locationLatitude": 32.72793,
    "locationLongitude": -117.15529,
    "locationCity": "San Diego",
    "locationCountry": "United States",
    "locationTimezoneName": "America/Los_Angeles",
    "locationTimezoneOffetSec": -28800,
    "locationTimezoneOffsetString": "-08:00"
  },
  "San Mateo, CA": {
    "locationLatitude": 37.562052,
    "locationLongitude": -122.308504,
    "locationCity": "San Mateo",
    "locationCountry": "United States",
    "locationTimezoneName": "America/Los_Angeles",
    "locationTimezoneOffetSec": -28800,
    "locationTimezoneOffsetString": "-08:00"
  },
  "Austin, TX": {
    "locationLatitude": 30.222346,
    "locationLongitude": -97.836521,
    "locationCity": "Austin",
    "locationCountry": "United States",
    "locationTimezoneName": "America/Denver",
    "locationTimezoneOffetSec": -25200,
    "locationTimezoneOffsetString": "-07:00"
  },
  "Aliso Viejo, CA": {
    "locationLatitude": 33.579889,
    "locationLongitude": -117.729533,
    "locationCity": "Aliso Viejo",
    "locationCountry": "United States",
    "locationTimezoneName": "America/Los_Angeles",
    "locationTimezoneOffetSec": -28800,
    "locationTimezoneOffsetString": "-08:00"
  },
  "Adelaide, AUS": {
    "locationLatitude": -34.929075,
    "locationLongitude": 138.602578,
    "locationCity": "Adelaide",
    "locationCountry": "Australia",
    "locationTimezoneName": "Australia/Adelaide",
    "locationTimezoneOffetSec": 37800,
    "locationTimezoneOffsetString": "+10:30"
  },
  "Waterloo, ON": {
    "locationLatitude": 43.479869,
    "locationLongitude": -80.539218,
    "locationCity": "Waterloo",
    "locationCountry": "Canada",
    "locationTimezoneName": "America/Toronto",
    "locationTimezoneOffetSec": -18000,
    "locationTimezoneOffsetString": "-05:00"
  },
  "Madison, WI": {
    "locationLatitude": 43.081309,
    "locationLongitude": -89.395609,
    "locationCity": "Madison",
    "locationCountry": "United States",
    "locationTimezoneName": "America/Chicago",
    "locationTimezoneOffetSec": -21600,
    "locationTimezoneOffsetString": "-06:00"
  },
  "Waterloo, Ontario, Canada": {
    "locationLatitude": 43.479869,
    "locationLongitude": -80.539218,
    "locationCity": "Waterloo",
    "locationCountry": "Canada",
    "locationTimezoneName": "America/Toronto",
    "locationTimezoneOffetSec": -18000,
    "locationTimezoneOffsetString": "-05:00"
  },
  "Bellevue, WA": {
    "locationLatitude": 47.609759,
    "locationLongitude": -122.17074,
    "locationCity": "Bellevue",
    "locationCountry": "United States",
    "locationTimezoneName": "America/Boise",
    "locationTimezoneOffetSec": -25200,
    "locationTimezoneOffsetString": "-07:00"
  },
  "Bellevue, WA, USA": {
    "locationLatitude": 47.609759,
    "locationLongitude": -122.17074,
    "locationCity": "Bellevue",
    "locationCountry": "United States",
    "locationTimezoneName": "America/Boise",
    "locationTimezoneOffetSec": -25200,
    "locationTimezoneOffsetString": "-07:00"
  },
  "Edinburgh, UK": {
    "locationLatitude": 55.929742,
    "locationLongitude": -3.306716,
    "locationCountry": "United Kingdom",
    "locationTimezoneName": "Europe/London",
    "locationTimezoneOffetSec": 0,
    "locationTimezoneOffsetString": "+00:00"
  },
  "Boston, MA, USA": {
    "locationLatitude": 42.355492,
    "locationLongitude": -71.048611,
    "locationCity": "Boston",
    "locationCountry": "United States",
    "locationTimezoneName": "America/New_York",
    "locationTimezoneOffetSec": -18000,
    "locationTimezoneOffsetString": "-05:00"
  },
  "Austin, TX, USA": {
    "locationLatitude": 30.222346,
    "locationLongitude": -97.836521,
    "locationCity": "Austin",
    "locationCountry": "United States",
    "locationTimezoneName": "America/Denver",
    "locationTimezoneOffetSec": -25200,
    "locationTimezoneOffsetString": "-07:00"
  },
  "New York, NY, USA": {
    "locationLatitude": 40.68295,
    "locationLongitude": -73.9708,
    "locationCity": "New York",
    "locationCountry": "United States",
    "locationTimezoneName": "America/New_York",
    "locationTimezoneOffetSec": -18000,
    "locationTimezoneOffsetString": "-05:00"
  },
  "Atlanta, GA, USA": {
    "locationLatitude": 33.769805,
    "locationLongitude": -84.414581,
    "locationCity": "Atlanta",
    "locationCountry": "United States",
    "locationTimezoneName": "America/Kentucky/Monticello",
    "locationTimezoneOffetSec": -18000,
    "locationTimezoneOffsetString": "-05:00"
  },
  "Chicago, IL, USA": {
    "locationLatitude": 41.87897,
    "locationLongitude": -87.66063,
    "locationCity": "Chicago",
    "locationCountry": "United States",
    "locationTimezoneName": "America/Chicago",
    "locationTimezoneOffetSec": -21600,
    "locationTimezoneOffsetString": "-06:00"
  },
  "San Francisco, CA, USA": {
    "locationLatitude": 37.778008,
    "locationLongitude": -122.431272,
    "locationCity": "San Francisco",
    "locationCountry": "United States",
    "locationTimezoneName": "America/Los_Angeles",
    "locationTimezoneOffetSec": -28800,
    "locationTimezoneOffsetString": "-08:00"
  },
  "Los Angeles, CA, USA": {
    "locationLatitude": 34.05513,
    "locationLongitude": -118.25703,
    "locationCity": "Los Angeles",
    "locationCountry": "United States",
    "locationTimezoneName": "America/Los_Angeles",
    "locationTimezoneOffetSec": -28800,
    "locationTimezoneOffsetString": "-08:00"
  },
  "Tencent Singapore - Singapore": {
    "locationLatitude": 37.426754,
    "locationLongitude": -122.139467,
    "locationCountry": "United States",
    "locationTimezoneName": "America/Los_Angeles",
    "locationTimezoneOffetSec": -28800,
    "locationTimezoneOffsetString": "-08:00"
  },
  "Amsterdam, North Holland, Netherlands": {
    "locationLatitude": 52.37243,
    "locationLongitude": 4.89973,
    "locationCity": "Amsterdam",
    "locationCountry": "Netherlands",
    "locationTimezoneName": "Europe/Amsterdam",
    "locationTimezoneOffetSec": 3600,
    "locationTimezoneOffsetString": "+01:00"
  },
  "North Holland": {
    "locationLatitude": 52.37243,
    "locationLongitude": 4.89973,
    "locationCity": "Amsterdam",
    "locationCountry": "Netherlands",
    "locationTimezoneName": "Europe/Amsterdam",
    "locationTimezoneOffetSec": 3600,
    "locationTimezoneOffsetString": "+01:00"
  },
  "Netherlands": {
    "locationLatitude": 52.37243,
    "locationLongitude": 4.89973,
    "locationCity": "Amsterdam",
    "locationCountry": "Netherlands",
    "locationTimezoneName": "Europe/Amsterdam",
    "locationTimezoneOffetSec": 3600,
    "locationTimezoneOffsetString": "+01:00"
  },
  "india": {
    "locationLatitude": 22.364293,
    "locationLongitude": 79.029432,
    "locationCity": "India",
    "locationCountry": "India",
    "locationTimezoneName": "Asia/Kolkata",
    "locationTimezoneOffetSec": 19800,
    "locationTimezoneOffsetString": "+05:30"
  },
  "Seoul, Korea": {
    "locationLatitude": 37.539619,
    "locationLongitude": 127.009676,
    "locationCity": "Seoul",
    "locationCountry": "South Korea",
    "locationTimezoneName": "Asia/Seoul",
    "locationTimezoneOffetSec": 32400,
    "locationTimezoneOffsetString": "+09:00"
  },
  "Korea": {
    "locationLatitude": 37.539619,
    "locationLongitude": 127.009676,
    "locationCity": "Seoul",
    "locationCountry": "South Korea",
    "locationTimezoneName": "Asia/Seoul",
    "locationTimezoneOffetSec": 32400,
    "locationTimezoneOffsetString": "+09:00"
  },
  "Seoul": {
    "locationLatitude": 37.539619,
    "locationLongitude": 127.009676,
    "locationCity": "Seoul",
    "locationCountry": "South Korea",
    "locationTimezoneName": "Asia/Seoul",
    "locationTimezoneOffetSec": 32400,
    "locationTimezoneOffsetString": "+09:00"
  },
  "Los Angeles: Playa Vista, CA": {
    "locationLatitude": 36.531544,
    "locationLongitude": -119.586168,
    "locationCity": "California",
    "locationCountry": "United States",
    "locationTimezoneName": "America/Los_Angeles",
    "locationTimezoneOffetSec": -28800,
    "locationTimezoneOffsetString": "-08:00"
  },
  "Los Angeles: Playa Vista": {
    "locationLatitude": 36.531544,
    "locationLongitude": -119.586168,
    "locationCity": "California",
    "locationCountry": "United States",
    "locationTimezoneName": "America/Los_Angeles",
    "locationTimezoneOffetSec": -28800,
    "locationTimezoneOffsetString": "-08:00"
  },
  "Central": {
    "locationLatitude": 7.07306,
    "locationLongitude": 125.61278,
    "locationCity": "Davao City",
    "locationCountry": "Philippines",
    "locationTimezoneName": "Asia/Manila",
    "locationTimezoneOffetSec": 28800,
    "locationTimezoneOffsetString": "+08:00"
  },
  "Singapore, Central, Singapore": {
    "locationLatitude": 1.316382,
    "locationLongitude": 103.833828,
    "locationCity": "Singapore",
    "locationCountry": "Singapore",
    "locationTimezoneName": "Asia/Singapore",
    "locationTimezoneOffetSec": 28800,
    "locationTimezoneOffsetString": "+08:00"
  },
  "Reykjavík, Iceland": {
    "locationLatitude": 64.09518,
    "locationLongitude": -21.861966,
    "locationCity": "Capital Region",
    "locationCountry": "Iceland",
    "locationTimezoneName": "Atlantic/Reykjavik",
    "locationTimezoneOffetSec": 0,
    "locationTimezoneOffsetString": "+00:00"
  },
  "Turin": {
    "locationLatitude": 45.059405,
    "locationLongitude": 7.652514,
    "locationCity": "Turin",
    "locationCountry": "Italy",
    "locationTimezoneName": "Europe/Rome",
    "locationTimezoneOffetSec": 3600,
    "locationTimezoneOffsetString": "+01:00"
  },
  "Needham, MA": {
    "locationLatitude": 42.287008,
    "locationLongitude": -71.235456,
    "locationCity": "Needham",
    "locationCountry": "United States",
    "locationTimezoneName": "America/New_York",
    "locationTimezoneOffetSec": -18000,
    "locationTimezoneOffsetString": "-05:00"
  },
  "Oxford, United Kingdom": {
    "locationLatitude": 51.746972,
    "locationLongitude": -1.228659,
    "locationCity": "Oxford",
    "locationCountry": "United Kingdom",
    "locationTimezoneName": "Europe/London",
    "locationTimezoneOffetSec": 0,
    "locationTimezoneOffsetString": "+00:00"
  },
  "Buenos Aires": {
    "locationLatitude": -34.607357,
    "locationLongitude": -58.454595,
    "locationCity": "Buenos Aires",
    "locationCountry": "Argentina",
    "locationTimezoneName": "America/Argentina/Buenos_Aires",
    "locationTimezoneOffetSec": -10800,
    "locationTimezoneOffsetString": "-03:00"
  },
  "Oxford, England, United Kingdom": {
    "locationLatitude": 51.746972,
    "locationLongitude": -1.228659,
    "locationCity": "Oxford",
    "locationCountry": "United Kingdom",
    "locationTimezoneName": "Europe/London",
    "locationTimezoneOffetSec": 0,
    "locationTimezoneOffsetString": "+00:00"
  },
  "San José, San José, Costa Rica": {
    "locationLatitude": 13.65,
    "locationLongitude": -88.98333,
    "locationCity": "San Jose Costa Rica",
    "locationCountry": "El Salvador",
    "locationTimezoneName": "America/El_Salvador",
    "locationTimezoneOffetSec": -21600,
    "locationTimezoneOffsetString": "-06:00"
  },
  "Atlanta, Georgia, United States": {
    "locationLatitude": 33.769805,
    "locationLongitude": -84.414581,
    "locationCity": "Atlanta",
    "locationCountry": "United States",
    "locationTimezoneName": "America/Kentucky/Monticello",
    "locationTimezoneOffetSec": -18000,
    "locationTimezoneOffsetString": "-05:00"
  },
  "Austin, Texas, United States": {
    "locationLatitude": 30.222346,
    "locationLongitude": -97.836521,
    "locationCity": "Austin",
    "locationCountry": "United States",
    "locationTimezoneName": "America/Denver",
    "locationTimezoneOffetSec": -25200,
    "locationTimezoneOffsetString": "-07:00"
  },
  "Johannesburg, Gauteng, South Africa": {
    "locationLatitude": -26.151045,
    "locationLongitude": 27.974334,
    "locationCity": "Johannesburg",
    "locationCountry": "South Africa",
    "locationTimezoneName": "Africa/Johannesburg",
    "locationTimezoneOffetSec": 7200,
    "locationTimezoneOffsetString": "+02:00"
  },
  "Santiago, Chile": {
    "locationLatitude": -33.428532,
    "locationLongitude": -70.630133,
    "locationCity": "Santiago",
    "locationCountry": "Chile",
    "locationTimezoneName": "America/Santiago",
    "locationTimezoneOffetSec": -10800,
    "locationTimezoneOffsetString": "-03:00"
  },
  "Boise, ID": {
    "locationLatitude": 43.945777,
    "locationLongitude": -115.884627,
    "locationCity": "Boise County",
    "locationCountry": "United States",
    "locationTimezoneName": "America/Boise",
    "locationTimezoneOffetSec": -25200,
    "locationTimezoneOffsetString": "-07:00"
  },
  "Portland, OR": {
    "locationLatitude": 45.533467,
    "locationLongitude": -122.650095,
    "locationCity": "Portland",
    "locationCountry": "United States",
    "locationTimezoneName": "America/Boise",
    "locationTimezoneOffetSec": -25200,
    "locationTimezoneOffsetString": "-07:00"
  },
  "Chicago, IL": {
    "locationLatitude": 41.87897,
    "locationLongitude": -87.66063,
    "locationCity": "Chicago",
    "locationCountry": "United States",
    "locationTimezoneName": "America/Chicago",
    "locationTimezoneOffetSec": -21600,
    "locationTimezoneOffsetString": "-06:00"
  },
  "Chicago, IL or": {
    "locationLatitude": 8.30147,
    "locationLongitude": 35.493041,
    "locationCity": "Illubabor Zone",
    "locationCountry": "Ethiopia",
    "locationTimezoneName": "Africa/Addis_Ababa",
    "locationTimezoneOffetSec": 10800,
    "locationTimezoneOffsetString": "+03:00"
  },
  "Tucson, AZ": {
    "locationLatitude": 32.19709,
    "locationLongitude": -110.828987,
    "locationCity": "Tucson",
    "locationCountry": "United States",
    "locationTimezoneName": "America/Phoenix",
    "locationTimezoneOffetSec": -25200,
    "locationTimezoneOffsetString": "-07:00"
  },
  "Los Angeles, USA": {
    "locationLatitude": 34.05513,
    "locationLongitude": -118.25703,
    "locationCity": "Los Angeles",
    "locationCountry": "United States",
    "locationTimezoneName": "America/Los_Angeles",
    "locationTimezoneOffetSec": -28800,
    "locationTimezoneOffsetString": "-08:00"
  },
  "Shanghai, China": {
    "locationLatitude": 31.246027,
    "locationLongitude": 121.483385,
    "locationCity": "Shanghai",
    "locationCountry": "China",
    "locationTimezoneName": "Asia/Shanghai",
    "locationTimezoneOffetSec": 28800,
    "locationTimezoneOffsetString": "+08:00"
  },
  "Singapore": {
    "locationLatitude": 1.316382,
    "locationLongitude": 103.833828,
    "locationCity": "Singapore",
    "locationCountry": "Singapore",
    "locationTimezoneName": "Asia/Singapore",
    "locationTimezoneOffetSec": 28800,
    "locationTimezoneOffsetString": "+08:00"
  },
  "Wilmington, NC": {
    "locationLatitude": 34.209198,
    "locationLongitude": -77.871911,
    "locationCity": "Wilmington",
    "locationCountry": "United States",
    "locationTimezoneName": "America/Kentucky/Monticello",
    "locationTimezoneOffetSec": -18000,
    "locationTimezoneOffsetString": "-05:00"
  },
  "London, UK": {
    "locationLatitude": 51.509648,
    "locationLongitude": -0.099076,
    "locationCity": "London",
    "locationCountry": "United Kingdom",
    "locationTimezoneName": "Europe/London",
    "locationTimezoneOffetSec": 0,
    "locationTimezoneOffsetString": "+00:00"
  },
  "Roanoke, VA": {
    "locationLatitude": 37.27097,
    "locationLongitude": -79.94143,
    "locationCity": "Roanoke",
    "locationCountry": "United States",
    "locationTimezoneName": "America/Kentucky/Monticello",
    "locationTimezoneOffetSec": -18000,
    "locationTimezoneOffsetString": "-05:00"
  },
  "Raleigh, NC": {
    "locationLatitude": 35.795543,
    "locationLongitude": -78.64439,
    "locationCity": "Raleigh",
    "locationCountry": "United States",
    "locationTimezoneName": "America/Kentucky/Monticello",
    "locationTimezoneOffetSec": -18000,
    "locationTimezoneOffsetString": "-05:00"
  },
  "St. Paul, MN": {
    "locationLatitude": 44.95304,
    "locationLongitude": -93.09013,
    "locationCity": "St. Paul",
    "locationCountry": "United States",
    "locationTimezoneName": "America/Menominee",
    "locationTimezoneOffetSec": -21600,
    "locationTimezoneOffsetString": "-06:00"
  },
  "Bangalore, India": {
    "locationLatitude": 12.96557,
    "locationLongitude": 77.60625,
    "locationCity": "Bangalore",
    "locationCountry": "India",
    "locationTimezoneName": "Asia/Kolkata",
    "locationTimezoneOffetSec": 19800,
    "locationTimezoneOffsetString": "+05:30"
  },
  "York, United Kingdom": {
    "locationLatitude": 53.952213,
    "locationLongitude": -1.096445,
    "locationCity": "York",
    "locationCountry": "United Kingdom",
    "locationTimezoneName": "Europe/London",
    "locationTimezoneOffetSec": 0,
    "locationTimezoneOffsetString": "+00:00"
  },
  "San Francisco, United States": {
    "locationLatitude": 37.778008,
    "locationLongitude": -122.431272,
    "locationCity": "San Francisco",
    "locationCountry": "United States",
    "locationTimezoneName": "America/Los_Angeles",
    "locationTimezoneOffetSec": -28800,
    "locationTimezoneOffsetString": "-08:00"
  },
  "Tel Aviv, Israel": {
    "locationLatitude": 32.066455,
    "locationLongitude": 34.783553,
    "locationCity": "Tel Aviv",
    "locationCountry": "Israel",
    "locationTimezoneName": "Asia/Jerusalem",
    "locationTimezoneOffetSec": 7200,
    "locationTimezoneOffsetString": "+02:00"
  },
  "San Francisco,  United States": {
    "locationLatitude": 37.778008,
    "locationLongitude": -122.431272,
    "locationCity": "San Francisco",
    "locationCountry": "United States",
    "locationTimezoneName": "America/Los_Angeles",
    "locationTimezoneOffetSec": -28800,
    "locationTimezoneOffsetString": "-08:00"
  },
  "London, United Kingdom": {
    "locationLatitude": 51.509648,
    "locationLongitude": -0.099076,
    "locationCity": "London",
    "locationCountry": "United Kingdom",
    "locationTimezoneName": "Europe/London",
    "locationTimezoneOffetSec": 0,
    "locationTimezoneOffsetString": "+00:00"
  },
  "Seattle, United States": {
    "locationLatitude": 47.673455,
    "locationLongitude": -122.331537,
    "locationCity": "Seattle",
    "locationCountry": "United States",
    "locationTimezoneName": "America/Boise",
    "locationTimezoneOffetSec": -25200,
    "locationTimezoneOffsetString": "-07:00"
  },
  "Portland, United States": {
    "locationLatitude": 45.533467,
    "locationLongitude": -122.650095,
    "locationCity": "Portland",
    "locationCountry": "United States",
    "locationTimezoneName": "America/Boise",
    "locationTimezoneOffetSec": -25200,
    "locationTimezoneOffsetString": "-07:00"
  },
  "Tokyo, Japan": {
    "locationLatitude": 35.695126,
    "locationLongitude": 139.75391,
    "locationCity": "Tokyo",
    "locationCountry": "Japan",
    "locationTimezoneName": "Asia/Tokyo",
    "locationTimezoneOffetSec": 32400,
    "locationTimezoneOffsetString": "+09:00"
  },
  "Kuala Lumpur, Malaysia": {
    "locationLatitude": 3.160318,
    "locationLongitude": 101.691466,
    "locationCity": "Kuala Lumpur",
    "locationCountry": "Malaysia",
    "locationTimezoneName": "Asia/Kuala_Lumpur",
    "locationTimezoneOffetSec": 28800,
    "locationTimezoneOffsetString": "+08:00"
  },
  "Chicago, United States": {
    "locationLatitude": 41.87897,
    "locationLongitude": -87.66063,
    "locationCity": "Chicago",
    "locationCountry": "United States",
    "locationTimezoneName": "America/Chicago",
    "locationTimezoneOffetSec": -21600,
    "locationTimezoneOffsetString": "-06:00"
  },
  "Manila, Philippines": {
    "locationLatitude": 14.593819,
    "locationLongitude": 120.992302,
    "locationCity": "Manila",
    "locationCountry": "Philippines",
    "locationTimezoneName": "Asia/Manila",
    "locationTimezoneOffetSec": 28800,
    "locationTimezoneOffsetString": "+08:00"
  },
  "San Francisco , United States": {
    "locationLatitude": 37.778008,
    "locationLongitude": -122.431272,
    "locationCity": "San Francisco",
    "locationCountry": "United States",
    "locationTimezoneName": "America/Los_Angeles",
    "locationTimezoneOffetSec": -28800,
    "locationTimezoneOffsetString": "-08:00"
  },
  "Irving, Texas": {
    "locationLatitude": 32.89869,
    "locationLongitude": -96.97224,
    "locationCity": "Irving",
    "locationCountry": "United States",
    "locationTimezoneName": "America/Denver",
    "locationTimezoneOffetSec": -25200,
    "locationTimezoneOffsetString": "-07:00"
  },
  ", Newark, New Jersey": {
    "locationLatitude": 40.718707,
    "locationLongitude": -74.185043,
    "locationCity": "Newark",
    "locationCountry": "United States",
    "locationTimezoneName": "America/New_York",
    "locationTimezoneOffetSec": -18000,
    "locationTimezoneOffsetString": "-05:00"
  },
  ", Newnan, Georgia": {
    "locationLatitude": 33.374274,
    "locationLongitude": -84.799547,
    "locationCity": "Newnan",
    "locationCountry": "United States",
    "locationTimezoneName": "America/Kentucky/Monticello",
    "locationTimezoneOffetSec": -18000,
    "locationTimezoneOffsetString": "-05:00"
  },
  "New Yk": {
    "locationLatitude": 40.68295,
    "locationLongitude": -73.9708,
    "locationCity": "New York",
    "locationCountry": "United States",
    "locationTimezoneName": "America/New_York",
    "locationTimezoneOffetSec": -18000,
    "locationTimezoneOffsetString": "-05:00"
  },
  "Düsseldf": {
    "locationLatitude": 50.041821,
    "locationLongitude": 8.584764,
    "locationCity": "Düsseldorf",
    "locationCountry": "Germany",
    "locationTimezoneName": "Europe/Busingen",
    "locationTimezoneOffetSec": 3600,
    "locationTimezoneOffsetString": "+01:00"
  },
  "Singape, Singape": {
    "locationLatitude": 1.316382,
    "locationLongitude": 103.833828,
    "locationCity": "Singapore",
    "locationCountry": "Singapore",
    "locationTimezoneName": "Asia/Singapore",
    "locationTimezoneOffetSec": 28800,
    "locationTimezoneOffsetString": "+08:00"
  },
  "New Yk City, New Yk": {
    "locationLatitude": 40.68295,
    "locationLongitude": -73.9708,
    "locationCity": "New York",
    "locationCountry": "United States",
    "locationTimezoneName": "America/New_York",
    "locationTimezoneOffetSec": -18000,
    "locationTimezoneOffsetString": "-05:00"
  },
  "London, Engl": {
    "locationLatitude": 51.509648,
    "locationLongitude": -0.099076,
    "locationCity": "London",
    "locationCountry": "United Kingdom",
    "locationTimezoneName": "Europe/London",
    "locationTimezoneOffetSec": 0,
    "locationTimezoneOffsetString": "+00:00"
  },
  "New Yk City, NY": {
    "locationLatitude": 40.68295,
    "locationLongitude": -73.9708,
    "locationCity": "New York",
    "locationCountry": "United States",
    "locationTimezoneName": "America/New_York",
    "locationTimezoneOffetSec": -18000,
    "locationTimezoneOffsetString": "-05:00"
  },
  "Amsterdam, Netherls": {
    "locationLatitude": 52.37243,
    "locationLongitude": 4.89973,
    "locationCity": "Amsterdam",
    "locationCountry": "Netherlands",
    "locationTimezoneName": "Europe/Amsterdam",
    "locationTimezoneOffetSec": 3600,
    "locationTimezoneOffsetString": "+01:00"
  },
  "New Yk, New Yk": {
    "locationLatitude": 40.68295,
    "locationLongitude": -73.9708,
    "locationCity": "New York",
    "locationCountry": "United States",
    "locationTimezoneName": "America/New_York",
    "locationTimezoneOffetSec": -18000,
    "locationTimezoneOffsetString": "-05:00"
  },
  "Ptl, Oregon": {
    "locationLatitude": 43.854178,
    "locationLongitude": -120.526709,
    "locationCity": "Oregon",
    "locationCountry": "United States",
    "locationTimezoneName": "America/Boise",
    "locationTimezoneOffetSec": -25200,
    "locationTimezoneOffsetString": "-07:00"
  },
  "Los Angeles, Califnia": {
    "locationLatitude": 34.05513,
    "locationLongitude": -118.25703,
    "locationCity": "Los Angeles",
    "locationCountry": "United States",
    "locationTimezoneName": "America/Los_Angeles",
    "locationTimezoneOffetSec": -28800,
    "locationTimezoneOffsetString": "-08:00"
  },
  "San Francisco, Califnia": {
    "locationLatitude": 37.778008,
    "locationLongitude": -122.431272,
    "locationCity": "San Francisco",
    "locationCountry": "United States",
    "locationTimezoneName": "America/Los_Angeles",
    "locationTimezoneOffetSec": -28800,
    "locationTimezoneOffsetString": "-08:00"
  },
  "United States, Califnia, Irvine": {
    "locationLatitude": 33.672421,
    "locationLongitude": -117.764394,
    "locationCity": "Irvine",
    "locationCountry": "United States",
    "locationTimezoneName": "America/Los_Angeles",
    "locationTimezoneOffetSec": -28800,
    "locationTimezoneOffsetString": "-08:00"
  },
  "United States, Califnia, Palo Alto": {
    "locationLatitude": 37.431169,
    "locationLongitude": -122.127302,
    "locationCity": "Palo Alto",
    "locationCountry": "United States",
    "locationTimezoneName": "America/Los_Angeles",
    "locationTimezoneOffetSec": -28800,
    "locationTimezoneOffsetString": "-08:00"
  },
  "United States, Illinois, Nmal": {
    "locationLatitude": 41.87897,
    "locationLongitude": -87.66063,
    "locationCity": "Chicago",
    "locationCountry": "United States",
    "locationTimezoneName": "America/Chicago",
    "locationTimezoneOffetSec": -21600,
    "locationTimezoneOffsetString": "-06:00"
  },
  "United States, Califnia, Los Angeles": {
    "locationLatitude": 39.715956,
    "locationLongitude": -96.999668,
    "locationCity": "United States",
    "locationCountry": "United States",
    "locationTimezoneName": "America/Denver",
    "locationTimezoneOffetSec": -25200,
    "locationTimezoneOffsetString": "-07:00"
  },
  "Tonto, Ontario, Canada": {
    "locationLatitude": 51.451405,
    "locationLongitude": -85.835963,
    "locationCity": "Ontario",
    "locationCountry": "Canada",
    "locationTimezoneName": "America/Nipigon",
    "locationTimezoneOffetSec": -18000,
    "locationTimezoneOffsetString": "-05:00"
  },
  "Pleasanton, Califnia, USA HQ": {
    "locationLatitude": 37.669437,
    "locationLongitude": -121.885889,
    "locationCity": "Pleasanton",
    "locationCountry": "United States",
    "locationTimezoneName": "America/Los_Angeles",
    "locationTimezoneOffetSec": -28800,
    "locationTimezoneOffsetString": "-08:00"
  },
  "New Yk City": {
    "locationLatitude": 40.68295,
    "locationLongitude": -73.9708,
    "locationCity": "New York",
    "locationCountry": "United States",
    "locationTimezoneName": "America/New_York",
    "locationTimezoneOffetSec": -18000,
    "locationTimezoneOffsetString": "-05:00"
  },
  "Nth America": {
    "locationLatitude": 38.309137,
    "locationLongitude": -101.328273,
    "locationCity": "North America",
    "locationCountry": null,
    "locationTimezoneName": "America/Denver",
    "locationTimezoneOffetSec": -25200,
    "locationTimezoneOffsetString": "-07:00"
  },
  "New Yk -": {
    "locationLatitude": 40.68295,
    "locationLongitude": -73.9708,
    "locationCity": "New York",
    "locationCountry": "United States",
    "locationTimezoneName": "America/New_York",
    "locationTimezoneOffetSec": -18000,
    "locationTimezoneOffsetString": "-05:00"
  },
  ", Newnan, Gegia": {
    "locationLatitude": 33.358291,
    "locationLongitude": -84.791016,
    "locationCity": "East Newnan",
    "locationCountry": "United States",
    "locationTimezoneName": "America/Kentucky/Monticello",
    "locationTimezoneOffetSec": -18000,
    "locationTimezoneOffsetString": "-05:00"
  },
  "United States, Califnia, El Segundo": {
    "locationLatitude": 36.531544,
    "locationLongitude": -119.586168,
    "locationCity": "El Segundo",
    "locationCountry": "United States",
    "locationTimezoneName": "America/Los_Angeles",
    "locationTimezoneOffetSec": -28800,
    "locationTimezoneOffsetString": "-08:00"
  },
  "New Yk, NY, USA": {
    "locationLatitude": 40.68295,
    "locationLongitude": -73.9708,
    "locationCity": "New York",
    "locationCountry": "United States",
    "locationTimezoneName": "America/New_York",
    "locationTimezoneOffetSec": -18000,
    "locationTimezoneOffsetString": "-05:00"
  },
  "Tencent Singape - Singape": {
    "locationLatitude": 1.316382,
    "locationLongitude": 103.833828,
    "locationCity": "Singapore",
    "locationCountry": "Singapore",
    "locationTimezoneName": "Asia/Singapore",
    "locationTimezoneOffetSec": 28800,
    "locationTimezoneOffsetString": "+08:00"
  },
  "San Francisco Bay Area": {
    "locationLatitude": 37.778008,
    "locationLongitude": -122.431272,
    "locationCity": "San Francisco",
    "locationCountry": "United States",
    "locationTimezoneName": "America/Los_Angeles",
    "locationTimezoneOffetSec": -28800,
    "locationTimezoneOffsetString": "-08:00"
  },
  "Nth Holl": {
    "locationLatitude": 38.309137,
    "locationLongitude": -101.328273,
    "locationCity": "North America",
    "locationCountry": null,
    "locationTimezoneName": "America/Denver",
    "locationTimezoneOffetSec": -25200,
    "locationTimezoneOffsetString": "-07:00"
  },
  "Kea": {
    "locationLatitude": 5.73333,
    "locationLongitude": 21.38333,
    "locationCity": "Kea",
    "locationCountry": "Central African Republic",
    "locationTimezoneName": "Africa/Bangui",
    "locationTimezoneOffetSec": 3600,
    "locationTimezoneOffsetString": "+01:00"
  },
  "Singape": {
    "locationLatitude": 1.316382,
    "locationLongitude": 103.833828,
    "locationCity": "Singapore",
    "locationCountry": "Singapore",
    "locationTimezoneName": "Asia/Singapore",
    "locationTimezoneOffetSec": 28800,
    "locationTimezoneOffsetString": "+08:00"
  },
  "Reykjavík, Icel": {
    "locationLatitude": 36.659075,
    "locationLongitude": 33.858027,
    "locationCity": "Mersin",
    "locationCountry": "Turkey",
    "locationTimezoneName": "Europe/Istanbul",
    "locationTimezoneOffetSec": 10800,
    "locationTimezoneOffsetString": "+03:00"
  },
  "Oxfd, United Kingdom": {
    "locationLatitude": 51.746972,
    "locationLongitude": -1.228659,
    "locationCity": "Oxford",
    "locationCountry": "United Kingdom",
    "locationTimezoneName": "Europe/London",
    "locationTimezoneOffetSec": 0,
    "locationTimezoneOffsetString": "+00:00"
  },
  "Oxfd, Engl, United Kingdom": {
    "locationLatitude": 51.746972,
    "locationLongitude": -1.228659,
    "locationCity": "Oxford",
    "locationCountry": "United Kingdom",
    "locationTimezoneName": "Europe/London",
    "locationTimezoneOffetSec": 0,
    "locationTimezoneOffsetString": "+00:00"
  },
  "Atlanta, Gegia, United States": {
    "locationLatitude": 33.769805,
    "locationLongitude": -84.414581,
    "locationCity": "Atlanta",
    "locationCountry": "United States",
    "locationTimezoneName": "America/Kentucky/Monticello",
    "locationTimezoneOffetSec": -18000,
    "locationTimezoneOffsetString": "-05:00"
  },
  "Ptl, OR": {
    "locationLatitude": 45.533467,
    "locationLongitude": -122.650095,
    "locationCity": "Portland",
    "locationCountry": "United States",
    "locationTimezoneName": "America/Boise",
    "locationTimezoneOffetSec": -25200,
    "locationTimezoneOffsetString": "-07:00"
  },
  "Chicago, IL ": {
    "locationLatitude": 41.87897,
    "locationLongitude": -87.66063,
    "locationCity": "Chicago",
    "locationCountry": "United States",
    "locationTimezoneName": "America/Chicago",
    "locationTimezoneOffetSec": -21600,
    "locationTimezoneOffsetString": "-06:00"
  },
  "Bangale, India": {
    "locationLatitude": 22.364293,
    "locationLongitude": 79.029432,
    "locationCity": "India",
    "locationCountry": "India",
    "locationTimezoneName": "Asia/Kolkata",
    "locationTimezoneOffetSec": 19800,
    "locationTimezoneOffsetString": "+05:30"
  },
  "Yk, United Kingdom": {
    "locationLatitude": 53.952213,
    "locationLongitude": -1.096445,
    "locationCity": "York",
    "locationCountry": "United Kingdom",
    "locationTimezoneName": "Europe/London",
    "locationTimezoneOffetSec": 0,
    "locationTimezoneOffsetString": "+00:00"
  },
  "Ptl, United States": {
    "locationLatitude": 45.533467,
    "locationLongitude": -122.650095,
    "locationCity": "Portland",
    "locationCountry": "United States",
    "locationTimezoneName": "America/Boise",
    "locationTimezoneOffetSec": -25200,
    "locationTimezoneOffsetString": "-07:00"
  },
  "Austin, TX, United States": {
    "locationLatitude": 30.222346,
    "locationLongitude": -97.836521,
    "locationCity": "Austin",
    "locationCountry": "United States",
    "locationTimezoneName": "America/Denver",
    "locationTimezoneOffetSec": -25200,
    "locationTimezoneOffsetString": "-07:00"
  },
  "New Yk, NY, United States": {
    "locationLatitude": 40.68295,
    "locationLongitude": -73.9708,
    "locationCity": "New York",
    "locationCountry": "United States",
    "locationTimezoneName": "America/New_York",
    "locationTimezoneOffetSec": -18000,
    "locationTimezoneOffsetString": "-05:00"
  },
  "Boulder, Colado, United States": {
    "locationLatitude": 40.016412,
    "locationLongitude": -105.259703,
    "locationCity": "Boulder",
    "locationCountry": "United States",
    "locationTimezoneName": "America/Denver",
    "locationTimezoneOffetSec": -25200,
    "locationTimezoneOffsetString": "-07:00"
  },
  "EMEA,": {
    "locationLatitude": -2.2145,
    "locationLongitude": 121.5984,
    "locationCity": "Emea",
    "locationCountry": "Indonesia",
    "locationTimezoneName": "Asia/Makassar",
    "locationTimezoneOffetSec": 28800,
    "locationTimezoneOffsetString": "+08:00"
  },
  "LATAM,": {
    "locationLatitude": -12.119306,
    "locationLongitude": -77.033863,
    "locationCountry": "Peru",
    "locationTimezoneName": "America/Lima",
    "locationTimezoneOffetSec": -18000,
    "locationTimezoneOffsetString": "-05:00"
  },
  "(US)": {
    "locationLatitude": 39.715956,
    "locationLongitude": -96.999668,
    "locationCity": "United States",
    "locationCountry": "United States",
    "locationTimezoneName": "America/Denver",
    "locationTimezoneOffetSec": -25200,
    "locationTimezoneOffsetString": "-07:00"
  },
  "Boston, MA": {
    "locationLatitude": 42.355492,
    "locationLongitude": -71.048611,
    "locationCity": "Boston",
    "locationCountry": "United States",
    "locationTimezoneName": "America/New_York",
    "locationTimezoneOffetSec": -18000,
    "locationTimezoneOffsetString": "-05:00"
  },
  "Dublin, Irel": {
    "locationLatitude": 53.33928,
    "locationLongitude": -6.281314,
    "locationCity": "Dublin",
    "locationCountry": "Ireland",
    "locationTimezoneName": "Europe/Dublin",
    "locationTimezoneOffetSec": 0,
    "locationTimezoneOffsetString": "+00:00"
  },
  "Boston ": {
    "locationLatitude": 42.355492,
    "locationLongitude": -71.048611,
    "locationCity": "Boston",
    "locationCountry": "United States",
    "locationTimezoneName": "America/New_York",
    "locationTimezoneOffetSec": -18000,
    "locationTimezoneOffsetString": "-05:00"
  },
  "Sydney": {
    "locationLatitude": -33.868633,
    "locationLongitude": 151.209421,
    "locationCity": "Sydney",
    "locationCountry": "Australia",
    "locationTimezoneName": "Australia/Sydney",
    "locationTimezoneOffetSec": 39600,
    "locationTimezoneOffsetString": "+11:00"
  },
  "Bangale": {
    "locationLatitude": 29.99851,
    "locationLongitude": 67.91581,
    "locationCountry": "Pakistan",
    "locationTimezoneName": "Asia/Karachi",
    "locationTimezoneOffetSec": 18000,
    "locationTimezoneOffsetString": "+05:00"
  },
  "Riga": {
    "locationLatitude": 56.971149,
    "locationLongitude": 24.142749,
    "locationCity": "Riga",
    "locationCountry": "Latvia",
    "locationTimezoneName": "Europe/Riga",
    "locationTimezoneOffetSec": 7200,
    "locationTimezoneOffsetString": "+02:00"
  },
  "Istanbul": {
    "locationLatitude": 41.01384,
    "locationLongitude": 28.94966,
    "locationCity": "Istanbul",
    "locationCountry": "Turkey",
    "locationTimezoneName": "Europe/Istanbul",
    "locationTimezoneOffetSec": 10800,
    "locationTimezoneOffsetString": "+03:00"
  },
  "Bucharest": {
    "locationLatitude": 44.43225,
    "locationLongitude": 26.10626,
    "locationCity": "Bucharest",
    "locationCountry": "Romania",
    "locationTimezoneName": "Europe/Bucharest",
    "locationTimezoneOffetSec": 7200,
    "locationTimezoneOffsetString": "+02:00"
  },
  "Montevideo": {
    "locationLatitude": -34.83346,
    "locationLongitude": -56.16735,
    "locationCity": "Montevideo",
    "locationCountry": "Uruguay",
    "locationTimezoneName": "America/Montevideo",
    "locationTimezoneOffetSec": -10800,
    "locationTimezoneOffsetString": "-03:00"
  },
  "India": {
    "locationLatitude": 22.364293,
    "locationLongitude": 79.029432,
    "locationCity": "India",
    "locationCountry": "India",
    "locationTimezoneName": "Asia/Kolkata",
    "locationTimezoneOffetSec": 19800,
    "locationTimezoneOffsetString": "+05:30"
  },
  "Seattle, WA": {
    "locationLatitude": 47.673455,
    "locationLongitude": -122.331537,
    "locationCity": "Seattle",
    "locationCountry": "United States",
    "locationTimezoneName": "America/Boise",
    "locationTimezoneOffetSec": -25200,
    "locationTimezoneOffsetString": "-07:00"
  },
  "Nashville, TN": {
    "locationLatitude": 36.236907,
    "locationLongitude": -86.834683,
    "locationCity": "Nashville",
    "locationCountry": "United States",
    "locationTimezoneName": "America/Kentucky/Monticello",
    "locationTimezoneOffetSec": -18000,
    "locationTimezoneOffsetString": "-05:00"
  },
  " USA": {
    "locationLatitude": 39.715956,
    "locationLongitude": -96.999668,
    "locationCity": "United States",
    "locationCountry": "United States",
    "locationTimezoneName": "America/Denver",
    "locationTimezoneOffetSec": -25200,
    "locationTimezoneOffsetString": "-07:00"
  },
  "New South Wales": {
    "locationLatitude": -32.494981,
    "locationLongitude": 146.586903,
    "locationCity": "New South Wales",
    "locationCountry": "Australia",
    "locationTimezoneName": "Australia/Sydney",
    "locationTimezoneOffetSec": 39600,
    "locationTimezoneOffsetString": "+11:00"
  },
  "Australia": {
    "locationLatitude": -23.992438,
    "locationLongitude": 134.050443,
    "locationCity": "Australia",
    "locationCountry": "Australia",
    "locationTimezoneName": "Australia/Eucla",
    "locationTimezoneOffetSec": 31500,
    "locationTimezoneOffsetString": "+08:45"
  },
  "Denver": {
    "locationLatitude": 39.740959,
    "locationLongitude": -104.985798,
    "locationCity": "Denver",
    "locationCountry": "United States",
    "locationTimezoneName": "America/Denver",
    "locationTimezoneOffetSec": -25200,
    "locationTimezoneOffsetString": "-07:00"
  },
  "Colado": {
    "locationLatitude": 39.740959,
    "locationLongitude": -104.985798,
    "locationCity": "Colorado",
    "locationCountry": "United States",
    "locationTimezoneName": "America/Denver",
    "locationTimezoneOffetSec": -25200,
    "locationTimezoneOffsetString": "-07:00"
  },
  "Bogotá - Bogota": {
    "locationLatitude": 4.635456,
    "locationLongitude": -74.08768,
    "locationCity": "Bogotá",
    "locationCountry": "Colombia",
    "locationTimezoneName": "America/Bogota",
    "locationTimezoneOffetSec": -18000,
    "locationTimezoneOffsetString": "-05:00"
  },
  "Colombia": {
    "locationLatitude": 4.6,
    "locationLongitude": -74.51667,
    "locationCity": "Colombia",
    "locationCountry": "Colombia",
    "locationTimezoneName": "America/Bogota",
    "locationTimezoneOffetSec": -18000,
    "locationTimezoneOffsetString": "-05:00"
  },
  "Spain": {
    "locationLatitude": 40.09095,
    "locationLongitude": -3.464618,
    "locationCity": "Spain",
    "locationCountry": "Spain",
    "locationTimezoneName": "Europe/Madrid",
    "locationTimezoneOffetSec": 3600,
    "locationTimezoneOffsetString": "+01:00"
  },
  "Tallinn": {
    "locationLatitude": 59.401347,
    "locationLongitude": 24.693912,
    "locationCity": "Tallinn",
    "locationCountry": "Estonia",
    "locationTimezoneName": "Europe/Tallinn",
    "locationTimezoneOffetSec": 7200,
    "locationTimezoneOffsetString": "+02:00"
  },
  "Estonia": {
    "locationLatitude": 58.722853,
    "locationLongitude": 25.867131,
    "locationCity": "Estonia",
    "locationCountry": "Estonia",
    "locationTimezoneName": "Europe/Tallinn",
    "locationTimezoneOffetSec": 7200,
    "locationTimezoneOffsetString": "+02:00"
  },
  "Karnataka": {
    "locationLatitude": 14.882195,
    "locationLongitude": 75.57454,
    "locationCity": "Karnataka",
    "locationCountry": "India",
    "locationTimezoneName": "Asia/Kolkata",
    "locationTimezoneOffetSec": 19800,
    "locationTimezoneOffsetString": "+05:30"
  },
  "東京都": {
    "locationLatitude": 35.695126,
    "locationLongitude": 139.75391,
    "locationCity": "Tokyo",
    "locationCountry": "Japan",
    "locationTimezoneName": "Asia/Tokyo",
    "locationTimezoneOffetSec": 32400,
    "locationTimezoneOffsetString": "+09:00"
  },
  "Japan": {
    "locationLatitude": 36.13793,
    "locationLongitude": 138.441899,
    "locationCity": "Japan",
    "locationCountry": "Japan",
    "locationTimezoneName": "Asia/Tokyo",
    "locationTimezoneOffetSec": 32400,
    "locationTimezoneOffsetString": "+09:00"
  },
  "Irel": {
    "locationLatitude": 8.760775,
    "locationLongitude": -70.105579,
    "locationCountry": "Venezuela",
    "locationTimezoneName": "America/Caracas",
    "locationTimezoneOffetSec": -14400,
    "locationTimezoneOffsetString": "-04:00"
  },
  "Nod-Holl": {
    "locationLatitude": 19.815239,
    "locationLongitude": -73.141288,
    "locationCity": "Nord-Ouest",
    "locationCountry": "Haiti",
    "locationTimezoneName": "America/Port-au-Prince",
    "locationTimezoneOffetSec": -18000,
    "locationTimezoneOffsetString": "-05:00"
  },
  "Prague": {
    "locationLatitude": 50.06694,
    "locationLongitude": 14.460249,
    "locationCity": "Prague",
    "locationCountry": "Czechia",
    "locationTimezoneName": "Europe/Prague",
    "locationTimezoneOffetSec": 3600,
    "locationTimezoneOffsetString": "+01:00"
  },
  "Czech Republic": {
    "locationLatitude": 49.88233,
    "locationLongitude": 15.377705,
    "locationCity": "Czechia",
    "locationCountry": "Czechia",
    "locationTimezoneName": "Europe/Prague",
    "locationTimezoneOffetSec": 3600,
    "locationTimezoneOffsetString": "+01:00"
  },
  "Bothell, WA": {
    "locationLatitude": 47.787813,
    "locationLongitude": -122.205088,
    "locationCity": "Bothell",
    "locationCountry": "United States",
    "locationTimezoneName": "America/Boise",
    "locationTimezoneOffetSec": -25200,
    "locationTimezoneOffsetString": "-07:00"
  },
  "Redwood City, CA": {
    "locationLatitude": 37.52658,
    "locationLongitude": -122.206273,
    "locationCity": "Redwood City",
    "locationCountry": "United States",
    "locationTimezoneName": "America/Los_Angeles",
    "locationTimezoneOffetSec": -28800,
    "locationTimezoneOffsetString": "-08:00"
  },
  "Viña del Mar, Chile": {
    "locationLatitude": -33.012505,
    "locationLongitude": -71.527974,
    "locationCity": "Valparaiso",
    "locationCountry": "Chile",
    "locationTimezoneName": "America/Santiago",
    "locationTimezoneOffetSec": -10800,
    "locationTimezoneOffsetString": "-03:00"
  },
  "Tel Aviv District": {
    "locationLatitude": 32.072773,
    "locationLongitude": 34.804786,
    "locationCity": "Tel Aviv",
    "locationCountry": "Israel",
    "locationTimezoneName": "Asia/Jerusalem",
    "locationTimezoneOffetSec": 7200,
    "locationTimezoneOffsetString": "+02:00"
  },
  "Israel": {
    "locationLatitude": 30.895128,
    "locationLongitude": 34.874702,
    "locationCity": "Israel",
    "locationCountry": "Israel",
    "locationTimezoneName": "Asia/Jerusalem",
    "locationTimezoneOffetSec": 7200,
    "locationTimezoneOffsetString": "+02:00"
  },
  "Kongens Lyngby": {
    "locationLatitude": 55.77044,
    "locationLongitude": 12.50378,
    "locationCity": "Kongens Lyngby",
    "locationCountry": "Denmark",
    "locationTimezoneName": "Europe/Copenhagen",
    "locationTimezoneOffetSec": 3600,
    "locationTimezoneOffsetString": "+01:00"
  },
  "Capital RegionDenmark": {
    "locationLatitude": -31.415,
    "locationLongitude": -64.183781,
    "locationCity": "Capital (Córdoba)",
    "locationCountry": "Argentina",
    "locationTimezoneName": "America/Argentina/Cordoba",
    "locationTimezoneOffetSec": -10800,
    "locationTimezoneOffsetString": "-03:00"
  },
  "Denmark": {
    "locationLatitude": 55.966966,
    "locationLongitude": 9.018163,
    "locationCity": "Denmark",
    "locationCountry": "Denmark",
    "locationTimezoneName": "Europe/Copenhagen",
    "locationTimezoneOffetSec": 3600,
    "locationTimezoneOffsetString": "+01:00"
  },
  "CT": {
    "locationLatitude": 41.580163,
    "locationLongitude": -72.756629,
    "locationCity": "Connecticut",
    "locationCountry": "United States",
    "locationTimezoneName": "America/New_York",
    "locationTimezoneOffetSec": -18000,
    "locationTimezoneOffsetString": "-05:00"
  },
  "MA": {
    "locationLatitude": 42.358752,
    "locationLongitude": -71.531484,
    "locationCity": "Massachusetts",
    "locationCountry": "United States",
    "locationTimezoneName": "America/New_York",
    "locationTimezoneOffetSec": -18000,
    "locationTimezoneOffsetString": "-05:00"
  },
  "Ptl": {
    "locationLatitude": 41.767397,
    "locationLongitude": -8.58187,
    "locationCountry": "Portugal",
    "locationTimezoneName": "Europe/Lisbon",
    "locationTimezoneOffetSec": 0,
    "locationTimezoneOffsetString": "+00:00"
  },
  "Oregon": {
    "locationLatitude": 43.854178,
    "locationLongitude": -120.526709,
    "locationCity": "Oregon",
    "locationCountry": "United States",
    "locationTimezoneName": "America/Boise",
    "locationTimezoneOffetSec": -25200,
    "locationTimezoneOffsetString": "-07:00"
  },
  "Rochester": {
    "locationLatitude": 43.160252,
    "locationLongitude": -77.626889,
    "locationCity": "Rochester",
    "locationCountry": "United States",
    "locationTimezoneName": "America/New_York",
    "locationTimezoneOffetSec": -18000,
    "locationTimezoneOffsetString": "-05:00"
  },
  "NY": {
    "locationLatitude": 40.68295,
    "locationLongitude": -73.9708,
    "locationCity": "New York",
    "locationCountry": "United States",
    "locationTimezoneName": "America/New_York",
    "locationTimezoneOffetSec": -18000,
    "locationTimezoneOffsetString": "-05:00"
  },
  "Mountain View, CA": {
    "locationLatitude": 37.393196,
    "locationLongitude": -122.074254,
    "locationCity": "Mountain View South",
    "locationCountry": "United States",
    "locationTimezoneName": "America/Los_Angeles",
    "locationTimezoneOffetSec": -28800,
    "locationTimezoneOffsetString": "-08:00"
  },
  "New Yk, NY": {
    "locationLatitude": 40.68295,
    "locationLongitude": -73.9708,
    "locationCity": "New York",
    "locationCountry": "United States",
    "locationTimezoneName": "America/New_York",
    "locationTimezoneOffetSec": -18000,
    "locationTimezoneOffsetString": "-05:00"
  },
  "US (East Coast)": {
    "locationLatitude": 40.68295,
    "locationLongitude": -73.9708,
    "locationCity": "New York",
    "locationCountry": "United States",
    "locationTimezoneName": "America/New_York",
    "locationTimezoneOffetSec": -18000,
    "locationTimezoneOffsetString": "-05:00"
  },
  "Zurich": {
    "locationLatitude": 47.373754,
    "locationLongitude": 8.537087,
    "locationCity": "Zurich",
    "locationCountry": "Switzerland",
    "locationTimezoneName": "Europe/Zurich",
    "locationTimezoneOffetSec": 3600,
    "locationTimezoneOffsetString": "+01:00"
  },
  "Sweden": {
    "locationLatitude": 65.859144,
    "locationLongitude": 19.017205,
    "locationCity": "Sweden",
    "locationCountry": "Sweden",
    "locationTimezoneName": "Europe/Stockholm",
    "locationTimezoneOffetSec": 3600,
    "locationTimezoneOffsetString": "+01:00"
  },
  "US (West Coast)": {
    "locationLatitude": 37.778008,
    "locationLongitude": -122.431272,
    "locationCity": "San Francisco",
    "locationCountry": "United States",
    "locationTimezoneName": "America/Los_Angeles",
    "locationTimezoneOffetSec": -28800,
    "locationTimezoneOffsetString": "-08:00"
  },
  "Kyiv": {
    "locationLatitude": 50.469863,
    "locationLongitude": 30.431971,
    "locationCity": "Kiev City",
    "locationCountry": "Ukraine",
    "locationTimezoneName": "Europe/Kiev",
    "locationTimezoneOffetSec": 7200,
    "locationTimezoneOffsetString": "+02:00"
  },
  "Austin, Texas": {
    "locationLatitude": 30.222346,
    "locationLongitude": -97.836521,
    "locationCity": "Austin",
    "locationCountry": "United States",
    "locationTimezoneName": "America/Denver",
    "locationTimezoneOffetSec": -25200,
    "locationTimezoneOffsetString": "-07:00"
  },
  "Costa Mesa, CA": {
    "locationLatitude": 33.665019,
    "locationLongitude": -117.920311,
    "locationCity": "Costa Mesa",
    "locationCountry": "United States",
    "locationTimezoneName": "America/Los_Angeles",
    "locationTimezoneOffetSec": -28800,
    "locationTimezoneOffsetString": "-08:00"
  },
  "Costa Mesa": {
    "locationLatitude": 33.665019,
    "locationLongitude": -117.920311,
    "locationCity": "Costa Mesa",
    "locationCountry": "United States",
    "locationTimezoneName": "America/Los_Angeles",
    "locationTimezoneOffetSec": -28800,
    "locationTimezoneOffsetString": "-08:00"
  },
  "Irvine, CA": {
    "locationLatitude": 33.672421,
    "locationLongitude": -117.764394,
    "locationCity": "Irvine",
    "locationCountry": "United States",
    "locationTimezoneName": "America/Los_Angeles",
    "locationTimezoneOffetSec": -28800,
    "locationTimezoneOffsetString": "-08:00"
  },
  "New Yk, NY ": {
    "locationLatitude": 40.68295,
    "locationLongitude": -73.9708,
    "locationCity": "New York",
    "locationCountry": "United States",
    "locationTimezoneName": "America/New_York",
    "locationTimezoneOffetSec": -18000,
    "locationTimezoneOffsetString": "-05:00"
  },
  "Bar Lev, Ahihud, Israel ": {
    "locationLatitude": 32.90855,
    "locationLongitude": 35.18667,
    "locationCountry": "Israel",
    "locationTimezoneName": "Asia/Jerusalem",
    "locationTimezoneOffetSec": 7200,
    "locationTimezoneOffsetString": "+02:00"
  },
  "Gurgaon": {
    "locationLatitude": 28.459647,
    "locationLongitude": 77.061922,
    "locationCity": "Gurugram",
    "locationCountry": "India",
    "locationTimezoneName": "Asia/Kolkata",
    "locationTimezoneOffetSec": 19800,
    "locationTimezoneOffsetString": "+05:30"
  },
  "Montreal": {
    "locationLatitude": 45.572744,
    "locationLongitude": -73.586295,
    "locationCity": "Montreal",
    "locationCountry": "Canada",
    "locationTimezoneName": "America/Toronto",
    "locationTimezoneOffetSec": -18000,
    "locationTimezoneOffsetString": "-05:00"
  },
  "Dublin, IE": {
    "locationLatitude": 53.33928,
    "locationLongitude": -6.281314,
    "locationCity": "Dublin",
    "locationCountry": "Ireland",
    "locationTimezoneName": "Europe/Dublin",
    "locationTimezoneOffetSec": 0,
    "locationTimezoneOffsetString": "+00:00"
  },
  "San Francisco, CA, US": {
    "locationLatitude": 37.778008,
    "locationLongitude": -122.431272,
    "locationCity": "San Francisco",
    "locationCountry": "United States",
    "locationTimezoneName": "America/Los_Angeles",
    "locationTimezoneOffetSec": -28800,
    "locationTimezoneOffsetString": "-08:00"
  },
  "San Francisco, CA, US;": {
    "locationLatitude": 37.778008,
    "locationLongitude": -122.431272,
    "locationCity": "San Francisco",
    "locationCountry": "United States",
    "locationTimezoneName": "America/Los_Angeles",
    "locationTimezoneOffetSec": -28800,
    "locationTimezoneOffsetString": "-08:00"
  },
  " Ontario": {
    "locationLatitude": 51.451405,
    "locationLongitude": -85.835963,
    "locationCity": "Ontario",
    "locationCountry": "Canada",
    "locationTimezoneName": "America/Nipigon",
    "locationTimezoneOffetSec": -18000,
    "locationTimezoneOffsetString": "-05:00"
  },
  " United States": {
    "locationLatitude": 39.715956,
    "locationLongitude": -96.999668,
    "locationCity": "United States",
    "locationCountry": "United States",
    "locationTimezoneName": "America/Denver",
    "locationTimezoneOffetSec": -25200,
    "locationTimezoneOffsetString": "-07:00"
  },
  "Seattle, WA, United States": {
    "locationLatitude": 47.673455,
    "locationLongitude": -122.331537,
    "locationCity": "Seattle",
    "locationCountry": "United States",
    "locationTimezoneName": "America/Boise",
    "locationTimezoneOffetSec": -25200,
    "locationTimezoneOffsetString": "-07:00"
  },
  "Tonto, ON, Canada": {
    "locationLatitude": 51.451405,
    "locationLongitude": -85.835963,
    "locationCity": "Ontario",
    "locationCountry": "Canada",
    "locationTimezoneName": "America/Nipigon",
    "locationTimezoneOffetSec": -18000,
    "locationTimezoneOffsetString": "-05:00"
  },
  "Charlottesville, VA": {
    "locationLatitude": 38.036141,
    "locationLongitude": -78.482369,
    "locationCity": "Charlottesville",
    "locationCountry": "United States",
    "locationTimezoneName": "America/New_York",
    "locationTimezoneOffetSec": -18000,
    "locationTimezoneOffsetString": "-05:00"
  },
  "Columbus, OH": {
    "locationLatitude": 39.98072,
    "locationLongitude": -82.985586,
    "locationCity": "Columbus",
    "locationCountry": "United States",
    "locationTimezoneName": "America/Indiana/Vevay",
    "locationTimezoneOffetSec": -18000,
    "locationTimezoneOffsetString": "-05:00"
  },
  "Durham, NC": {
    "locationLatitude": 35.975835,
    "locationLongitude": -78.915629,
    "locationCity": "Durham",
    "locationCountry": "United States",
    "locationTimezoneName": "America/Kentucky/Monticello",
    "locationTimezoneOffetSec": -18000,
    "locationTimezoneOffsetString": "-05:00"
  },
  " US": {
    "locationLatitude": 39.715956,
    "locationLongitude": -96.999668,
    "locationCity": "United States",
    "locationCountry": "United States",
    "locationTimezoneName": "America/Denver",
    "locationTimezoneOffetSec": -25200,
    "locationTimezoneOffsetString": "-07:00"
  },
  "Palo Alto, CA, US": {
    "locationLatitude": 37.431169,
    "locationLongitude": -122.127302,
    "locationCity": "Palo Alto",
    "locationCountry": "United States",
    "locationTimezoneName": "America/Los_Angeles",
    "locationTimezoneOffetSec": -28800,
    "locationTimezoneOffsetString": "-08:00"
  },
  "Seattle, WA, US": {
    "locationLatitude": 47.673455,
    "locationLongitude": -122.331537,
    "locationCity": "Seattle",
    "locationCountry": "United States",
    "locationTimezoneName": "America/Boise",
    "locationTimezoneOffetSec": -25200,
    "locationTimezoneOffsetString": "-07:00"
  },
  "Palo Alto, CA": {
    "locationLatitude": 37.431169,
    "locationLongitude": -122.127302,
    "locationCity": "Palo Alto",
    "locationCountry": "United States",
    "locationTimezoneName": "America/Los_Angeles",
    "locationTimezoneOffetSec": -28800,
    "locationTimezoneOffsetString": "-08:00"
  },
  "Minneapolis": {
    "locationLatitude": 44.96313,
    "locationLongitude": -93.266563,
    "locationCity": "Minneapolis",
    "locationCountry": "United States",
    "locationTimezoneName": "America/Menominee",
    "locationTimezoneOffetSec": -21600,
    "locationTimezoneOffsetString": "-06:00"
  },
  "Gegia": {
    "locationLatitude": 44.198636,
    "locationLongitude": 7.585568,
    "locationCountry": "Italy",
    "locationTimezoneName": "Europe/Rome",
    "locationTimezoneOffetSec": 3600,
    "locationTimezoneOffsetString": "+01:00"
  },
  "Tonto, ON -": {
    "locationLatitude": 51.451405,
    "locationLongitude": -85.835963,
    "locationCity": "Ontario",
    "locationCountry": "Canada",
    "locationTimezoneName": "America/Nipigon",
    "locationTimezoneOffetSec": -18000,
    "locationTimezoneOffsetString": "-05:00"
  },
  "San Francisco, CA -": {
    "locationLatitude": 37.778008,
    "locationLongitude": -122.431272,
    "locationCity": "San Francisco",
    "locationCountry": "United States",
    "locationTimezoneName": "America/Los_Angeles",
    "locationTimezoneOffetSec": -28800,
    "locationTimezoneOffsetString": "-08:00"
  },
  "US": {
    "locationLatitude": 39.715956,
    "locationLongitude": -96.999668,
    "locationCity": "United States",
    "locationCountry": "United States",
    "locationTimezoneName": "America/Denver",
    "locationTimezoneOffetSec": -25200,
    "locationTimezoneOffsetString": "-07:00"
  },
  "- United States": {
    "locationLatitude": 39.715956,
    "locationLongitude": -96.999668,
    "locationCity": "United States",
    "locationCountry": "United States",
    "locationTimezoneName": "America/Denver",
    "locationTimezoneOffetSec": -25200,
    "locationTimezoneOffsetString": "-07:00"
  },
  "Vancouver, BC, Canada": {
    "locationLatitude": 49.2819,
    "locationLongitude": -123.11874,
    "locationCity": "Vancouver",
    "locationCountry": "Canada",
    "locationTimezoneName": "America/Vancouver",
    "locationTimezoneOffetSec": -28800,
    "locationTimezoneOffsetString": "-08:00"
  },
  "Stennis Space Center, Mississippi": {
    "locationLatitude": 30.382686,
    "locationLongitude": -89.607925,
    "locationCity": "Stennis Space Center",
    "locationCountry": "United States",
    "locationTimezoneName": "America/Kentucky/Monticello",
    "locationTimezoneOffetSec": -18000,
    "locationTimezoneOffsetString": "-05:00"
  },
  "Shanghai": {
    "locationLatitude": 31.246027,
    "locationLongitude": 121.483385,
    "locationCity": "Shanghai",
    "locationCountry": "China",
    "locationTimezoneName": "Asia/Shanghai",
    "locationTimezoneOffetSec": 28800,
    "locationTimezoneOffsetString": "+08:00"
  },
  "Shenzhen": {
    "locationLatitude": 22.551224,
    "locationLongitude": 113.930539,
    "locationCity": "Shenzhen",
    "locationCountry": "China",
    "locationTimezoneName": "Asia/Shanghai",
    "locationTimezoneOffetSec": 28800,
    "locationTimezoneOffsetString": "+08:00"
  },
  "Columbia, MO": {
    "locationLatitude": 38.945483,
    "locationLongitude": -92.32928,
    "locationCity": "Columbia",
    "locationCountry": "United States",
    "locationTimezoneName": "America/Indiana/Vincennes",
    "locationTimezoneOffetSec": -18000,
    "locationTimezoneOffsetString": "-05:00"
  },
  "Anywhere (UK)": {
    "locationLatitude": 51.509648,
    "locationLongitude": -0.099076,
    "locationCity": "London",
    "locationCountry": "United Kingdom",
    "locationTimezoneName": "Europe/London",
    "locationTimezoneOffetSec": 0,
    "locationTimezoneOffsetString": "+00:00"
  },
  "San Francisco (US)": {
    "locationLatitude": 37.778008,
    "locationLongitude": -122.431272,
    "locationCity": "San Francisco",
    "locationCountry": "United States",
    "locationTimezoneName": "America/Los_Angeles",
    "locationTimezoneOffetSec": -28800,
    "locationTimezoneOffsetString": "-08:00"
  },
  "San Francisco, Califnia, United States": {
    "locationLatitude": 37.778008,
    "locationLongitude": -122.431272,
    "locationCity": "San Francisco",
    "locationCountry": "United States",
    "locationTimezoneName": "America/Los_Angeles",
    "locationTimezoneOffetSec": -28800,
    "locationTimezoneOffsetString": "-08:00"
  },
  "San Francisco,": {
    "locationLatitude": 37.778008,
    "locationLongitude": -122.431272,
    "locationCity": "San Francisco",
    "locationCountry": "United States",
    "locationTimezoneName": "America/Los_Angeles",
    "locationTimezoneOffetSec": -28800,
    "locationTimezoneOffsetString": "-08:00"
  },
  "Ottawa": {
    "locationLatitude": 45.209415,
    "locationLongitude": -75.783876,
    "locationCity": "Ottawa",
    "locationCountry": "Canada",
    "locationTimezoneName": "America/Toronto",
    "locationTimezoneOffetSec": -18000,
    "locationTimezoneOffsetString": "-05:00"
  },
  "Denver, CO": {
    "locationLatitude": 39.740959,
    "locationLongitude": -104.985798,
    "locationCity": "Denver",
    "locationCountry": "United States",
    "locationTimezoneName": "America/Denver",
    "locationTimezoneOffetSec": -25200,
    "locationTimezoneOffsetString": "-07:00"
  },
  "- Ontario": {
    "locationLatitude": 51.451405,
    "locationLongitude": -85.835963,
    "locationCity": "Ontario",
    "locationCountry": "Canada",
    "locationTimezoneName": "America/Nipigon",
    "locationTimezoneOffetSec": -18000,
    "locationTimezoneOffsetString": "-05:00"
  },
  "- British Columbia": {
    "locationLatitude": 54.790277,
    "locationLongitude": -124.557003,
    "locationCity": "British Columbia",
    "locationCountry": "Canada",
    "locationTimezoneName": "America/Fort_Nelson",
    "locationTimezoneOffetSec": -25200,
    "locationTimezoneOffsetString": "-07:00"
  },
  "San Francisco, CA,": {
    "locationLatitude": 37.778008,
    "locationLongitude": -122.431272,
    "locationCity": "San Francisco",
    "locationCountry": "United States",
    "locationTimezoneName": "America/Los_Angeles",
    "locationTimezoneOffetSec": -28800,
    "locationTimezoneOffsetString": "-08:00"
  },
  "London (UK)": {
    "locationLatitude": 51.509648,
    "locationLongitude": -0.099076,
    "locationCity": "London",
    "locationCountry": "United Kingdom",
    "locationTimezoneName": "Europe/London",
    "locationTimezoneOffetSec": 0,
    "locationTimezoneOffsetString": "+00:00"
  },
  "in NY": {
    "locationLatitude": 40.68295,
    "locationLongitude": -73.9708,
    "locationCity": "New York",
    "locationCountry": "United States",
    "locationTimezoneName": "America/New_York",
    "locationTimezoneOffetSec": -18000,
    "locationTimezoneOffsetString": "-05:00"
  },
  "NJ": {
    "locationLatitude": 39.66502,
    "locationLongitude": -74.738208,
    "locationCity": "New Jersey",
    "locationCountry": "United States",
    "locationTimezoneName": "America/New_York",
    "locationTimezoneOffetSec": -18000,
    "locationTimezoneOffsetString": "-05:00"
  },
  "GA": {
    "locationLatitude": 41.870087,
    "locationLongitude": 43.735725,
    "locationCity": "Georgia",
    "locationCountry": "Georgia",
    "locationTimezoneName": "Asia/Tbilisi",
    "locationTimezoneOffetSec": 14400,
    "locationTimezoneOffsetString": "+04:00"
  },
  "IN": {
    "locationLatitude": 39.904493,
    "locationLongitude": -86.250281,
    "locationCity": "Indiana",
    "locationCountry": "United States",
    "locationTimezoneName": "America/Indiana/Indianapolis",
    "locationTimezoneOffetSec": -18000,
    "locationTimezoneOffsetString": "-05:00"
  },
  "WI": {
    "locationLatitude": 44.356004,
    "locationLongitude": -89.466198,
    "locationCity": "Wisconsin",
    "locationCountry": "United States",
    "locationTimezoneName": "America/Menominee",
    "locationTimezoneOffetSec": -21600,
    "locationTimezoneOffsetString": "-06:00"
  },
  "CA  OR": {
    "locationLatitude": 45.533467,
    "locationLongitude": -122.650095,
    "locationCity": "Portland",
    "locationCountry": "United States",
    "locationTimezoneName": "America/Boise",
    "locationTimezoneOffetSec": -25200,
    "locationTimezoneOffsetString": "-07:00"
  },
  "Kitchener  Canada": {
    "locationLatitude": 43.418345,
    "locationLongitude": -80.468831,
    "locationCity": "Kitchener",
    "locationCountry": "Canada",
    "locationTimezoneName": "America/Toronto",
    "locationTimezoneOffetSec": -18000,
    "locationTimezoneOffsetString": "-05:00"
  },
  "Kitchener": {
    "locationLatitude": 43.418345,
    "locationLongitude": -80.468831,
    "locationCity": "Kitchener",
    "locationCountry": "Canada",
    "locationTimezoneName": "America/Toronto",
    "locationTimezoneOffetSec": -18000,
    "locationTimezoneOffsetString": "-05:00"
  },
  "Ontario, Canada": {
    "locationLatitude": 51.451405,
    "locationLongitude": -85.835963,
    "locationCity": "Ontario",
    "locationCountry": "Canada",
    "locationTimezoneName": "America/Nipigon",
    "locationTimezoneOffetSec": -18000,
    "locationTimezoneOffsetString": "-05:00"
  },
  "Seattle": {
    "locationLatitude": 47.673455,
    "locationLongitude": -122.331537,
    "locationCity": "Seattle",
    "locationCountry": "United States",
    "locationTimezoneName": "America/Boise",
    "locationTimezoneOffetSec": -25200,
    "locationTimezoneOffsetString": "-07:00"
  },
  "Washington, DC": {
    "locationLatitude": 38.82652,
    "locationLongitude": -77.01712,
    "locationCity": "Washington",
    "locationCountry": "United States",
    "locationTimezoneName": "America/New_York",
    "locationTimezoneOffetSec": -18000,
    "locationTimezoneOffsetString": "-05:00"
  },
  "Warsaw, Pol": {
    "locationLatitude": 52.237695,
    "locationLongitude": 21.005427,
    "locationCity": "Warsaw",
    "locationCountry": "Poland",
    "locationTimezoneName": "Europe/Warsaw",
    "locationTimezoneOffetSec": 3600,
    "locationTimezoneOffsetString": "+01:00"
  },
  "Dallas, TX ": {
    "locationLatitude": 32.736212,
    "locationLongitude": -96.784359,
    "locationCity": "Dallas",
    "locationCountry": "United States",
    "locationTimezoneName": "America/Indiana/Vincennes",
    "locationTimezoneOffetSec": -18000,
    "locationTimezoneOffsetString": "-05:00"
  },
  "Atlanta, GA ": {
    "locationLatitude": 33.769805,
    "locationLongitude": -84.414581,
    "locationCity": "Atlanta",
    "locationCountry": "United States",
    "locationTimezoneName": "America/Kentucky/Monticello",
    "locationTimezoneOffetSec": -18000,
    "locationTimezoneOffsetString": "-05:00"
  },
  "Atlanta, Gegia ": {
    "locationLatitude": 33.769805,
    "locationLongitude": -84.414581,
    "locationCity": "Atlanta",
    "locationCountry": "United States",
    "locationTimezoneName": "America/Kentucky/Monticello",
    "locationTimezoneOffetSec": -18000,
    "locationTimezoneOffsetString": "-05:00"
  },
  "New Yk ": {
    "locationLatitude": 46.593247,
    "locationLongitude": -120.547823,
    "locationCity": "Yakima",
    "locationCountry": "United States",
    "locationTimezoneName": "America/Boise",
    "locationTimezoneOffetSec": -25200,
    "locationTimezoneOffsetString": "-07:00"
  },
  "Austin, Texas ": {
    "locationLatitude": 30.222346,
    "locationLongitude": -97.836521,
    "locationCity": "Austin",
    "locationCountry": "United States",
    "locationTimezoneName": "America/Denver",
    "locationTimezoneOffetSec": -25200,
    "locationTimezoneOffsetString": "-07:00"
  },
  "Redwood City, CA ": {
    "locationLatitude": 37.52658,
    "locationLongitude": -122.206273,
    "locationCity": "Redwood City",
    "locationCountry": "United States",
    "locationTimezoneName": "America/Los_Angeles",
    "locationTimezoneOffetSec": -28800,
    "locationTimezoneOffsetString": "-08:00"
  },
  "Austin, TX ": {
    "locationLatitude": 30.222346,
    "locationLongitude": -97.836521,
    "locationCity": "Austin",
    "locationCountry": "United States",
    "locationTimezoneName": "America/Denver",
    "locationTimezoneOffetSec": -25200,
    "locationTimezoneOffsetString": "-07:00"
  },
  "Warsaw": {
    "locationLatitude": 52.237695,
    "locationLongitude": 21.005427,
    "locationCity": "Warsaw",
    "locationCountry": "Poland",
    "locationTimezoneName": "Europe/Warsaw",
    "locationTimezoneOffetSec": 3600,
    "locationTimezoneOffsetString": "+01:00"
  },
  "Washington DC, United States": {
    "locationLatitude": 38.82652,
    "locationLongitude": -77.01712,
    "locationCity": "Washington",
    "locationCountry": "United States",
    "locationTimezoneName": "America/New_York",
    "locationTimezoneOffetSec": -18000,
    "locationTimezoneOffsetString": "-05:00"
  },
  "Philadelphia, Pennsylvania": {
    "locationLatitude": 39.990821,
    "locationLongitude": -75.168428,
    "locationCity": "Philadelphia",
    "locationCountry": "United States",
    "locationTimezoneName": "America/New_York",
    "locationTimezoneOffetSec": -18000,
    "locationTimezoneOffsetString": "-05:00"
  },
  "Los Angeles, CA": {
    "locationLatitude": 34.05513,
    "locationLongitude": -118.25703,
    "locationCity": "Los Angeles",
    "locationCountry": "United States",
    "locationTimezoneName": "America/Los_Angeles",
    "locationTimezoneOffetSec": -28800,
    "locationTimezoneOffsetString": "-08:00"
  },
  "Tonto": {
    "locationLatitude": -7.76377,
    "locationLongitude": 23.60176,
    "locationCity": "Etondo",
    "locationCountry": "Democratic Republic of Congo",
    "locationTimezoneName": "Africa/Lubumbashi",
    "locationTimezoneOffetSec": 7200,
    "locationTimezoneOffsetString": "+02:00"
  },
  "Pto": {
    "locationLatitude": 40.385735,
    "locationLongitude": -3.68773,
    "locationCountry": "Spain",
    "locationTimezoneName": "Europe/Madrid",
    "locationTimezoneOffetSec": 3600,
    "locationTimezoneOffsetString": "+01:00"
  },