{
  "Copenhagen, Denmark": {
    "locationLatitude": 55.704438,
    "locationLongitude": 12.502119,
    "locationCity": "Copenhagen",
    "locationCountry": "Denmark",
    "locationTimezoneName": "Europe/Copenhagen",
    "locationTimezoneOffetSec": 3600,
    "locationTimezoneOffsetString": "+01:00"
  },
  "London, England": {
    "locationLatitude": 51.509648,
    "locationLongitude": -0.099076,
    "locationCity": "London",
    "locationCountry": "United Kingdom",
    "locationTimezoneName": "Europe/London",
    "locationTimezoneOffetSec": 0,
    "locationTimezoneOffsetString": "+00:00"
  },
  "New York City, NY": {
    "locationLatitude": 40.68295,
    "locationLongitude": -73.9708,
    "locationCity": "New York",
    "locationCountry": "United States",
    "locationTimezoneName": "America/New_York",
    "locationTimezoneOffetSec": -18000,
    "locationTimezoneOffsetString": "-05:00"
  },
  "New York": {
    "locationLatitude": 40.68295,
    "locationLongitude": -73.9708,
    "locationCity": "New York",
    "locationCountry": "United States",
    "locationTimezoneName": "America/New_York",
    "locationTimezoneOffetSec": -18000,
    "locationTimezoneOffsetString": "-05:00"
  },
  "Singapore, Singapore": {
    "locationLatitude": 1.316382,
    "locationLongitude": 103.833828,
    "locationCity": "Singapore",
    "locationCountry": "Singapore",
    "locationTimezoneName": "Asia/Singapore",
    "locationTimezoneOffetSec": 28800,
    "locationTimezoneOffsetString": "+08:00"
  },
  "New York City, New York": {
    "locationLatitude": 40.68295,
    "locationLongitude": -73.9708,
    "locationCity": "New York",
    "locationCountry": "United States",
    "locationTimezoneName": "America/New_York",
    "locationTimezoneOffetSec": -18000,
    "locationTimezoneOffsetString": "-05:00"
  },
  "Canberra, Australia": {
    "locationLatitude": -35.470057,
    "locationLongitude": 148.954507,
    "locationCity": "Australian Capital Territory",
    "locationCountry": "Australia",
    "locationTimezoneName": "Australia/Sydney",
    "locationTimezoneOffetSec": 39600,
    "locationTimezoneOffsetString": "+11:00"
  },
  "Sydney, Australia": {
    "locationLatitude": -33.868633,
    "locationLongitude": 151.209421,
    "locationCity": "Sydney",
    "locationCountry": "Australia",
    "locationTimezoneName": "Australia/Sydney",
    "locationTimezoneOffetSec": 39600,
    "locationTimezoneOffsetString": "+11:00"
  },
  "Melbourne, Australia": {
    "locationLatitude": -37.825071,
    "locationLongitude": 144.978682,
    "locationCity": "Melbourne",
    "locationCountry": "Australia",
    "locationTimezoneName": "Australia/Melbourne",
    "locationTimezoneOffetSec": 39600,
    "locationTimezoneOffsetString": "+11:00"
  },
  "Berlin, Germany": {
    "locationLatitude": 52.524932,
    "locationLongitude": 13.407032,
    "locationCity": "Berlin",
    "locationCountry": "Germany",
    "locationTimezoneName": "Europe/Berlin",
    "locationTimezoneOffetSec": 3600,
    "locationTimezoneOffsetString": "+01:00"
  },
  "Frankfurt, Germany": {
    "locationLatitude": 50.041821,
    "locationLongitude": 8.584764,
    "locationCity": "Frankfurt",
    "locationCountry": "Germany",
    "locationTimezoneName": "Europe/Busingen",
    "locationTimezoneOffetSec": 3600,
    "locationTimezoneOffsetString": "+01:00"
  },
  "Amsterdam, Netherlands": {
    "locationLatitude": 52.37243,
    "locationLongitude": 4.89973,
    "locationCity": "Amsterdam",
    "locationCountry": "Netherlands",
    "locationTimezoneName": "Europe/Amsterdam",
    "locationTimezoneOffetSec": 3600,
    "locationTimezoneOffsetString": "+01:00"
  },
  "Paris, France": {
    "locationLatitude": 48.858705,
    "locationLongitude": 2.342865,
    "locationCity": "Paris",
    "locationCountry": "France",
    "locationTimezoneName": "Europe/Paris",
    "locationTimezoneOffetSec": 3600,
    "locationTimezoneOffsetString": "+01:00"
  },
  "New York, New York": {
    "locationLatitude": 40.68295,
    "locationLongitude": -73.9708,
    "locationCity": "New York",
    "locationCountry": "United States",
    "locationTimezoneName": "America/New_York",
    "locationTimezoneOffetSec": -18000,
    "locationTimezoneOffsetString": "-05:00"
  },
  "Portland, Oregon": {
    "locationLatitude": 45.533467,
    "locationLongitude": -122.650095,
    "locationCity": "Portland",
    "locationCountry": "United States",
    "locationTimezoneName": "America/Boise",
    "locationTimezoneOffetSec": -25200,
    "locationTimezoneOffsetString": "-07:00"
  },
  "Chicago, Illinois": {
    "locationLatitude": 41.87897,
    "locationLongitude": -87.66063,
    "locationCity": "Chicago",
    "locationCountry": "United States",
    "locationTimezoneName": "America/Chicago",
    "locationTimezoneOffetSec": -21600,
    "locationTimezoneOffsetString": "-06:00"
  },
  "Los Angeles, California": {
    "locationLatitude": 34.05513,
    "locationLongitude": -118.25703,
    "locationCity": "Los Angeles",
    "locationCountry": "United States",
    "locationTimezoneName": "America/Los_Angeles",
    "locationTimezoneOffetSec": -28800,
    "locationTimezoneOffsetString": "-08:00"
  },
  "San Francisco, California": {
    "locationLatitude": 37.778008,
    "locationLongitude": -122.431272,
    "locationCity": "San Francisco",
    "locationCountry": "United States",
    "locationTimezoneName": "America/Los_Angeles",
    "locationTimezoneOffetSec": -28800,
    "locationTimezoneOffsetString": "-08:00"
  },
  "United States, California, Irvine": {
    "locationLatitude": 33.672421,
    "locationLongitude": -117.764394,
    "locationCity": "Irvine",
    "locationCountry": "United States",
    "locationTimezoneName": "America/Los_Angeles",
    "locationTimezoneOffetSec": -28800,
    "locationTimezoneOffsetString": "-08:00"
  },
  "United States, California, Palo Alto": {
    "locationLatitude": 37.431169,
    "locationLongitude": -122.127302,
    "locationCity": "Palo Alto",
    "locationCountry": "United States",
    "locationTimezoneName": "America/Los_Angeles",
    "locationTimezoneOffetSec": -28800,
    "locationTimezoneOffsetString": "-08:00"
  },
  "United States, Illinois, Normal": {
    "locationLatitude": 39.715956,
    "locationLongitude": -96.999668,
    "locationCity": "United States",
    "locationCountry": "United States",
    "locationTimezoneName": "America/Denver",
    "locationTimezoneOffetSec": -25200,
    "locationTimezoneOffsetString": "-07:00"
  },
  "United States, Michigan, Plymouth": {
    "locationLatitude": 50.393988,
    "locationLongitude": -4.113637,
    "locationCity": "Plymouth",
    "locationCountry": "United Kingdom",
    "locationTimezoneName": "Europe/London",
    "locationTimezoneOffetSec": 0,
    "locationTimezoneOffsetString": "+00:00"
  },
  "United States, California, Los Angeles": {
    "locationLatitude": 39.715956,
    "locationLongitude": -96.999668,
    "locationCity": "United States",
    "locationCountry": "United States",
    "locationTimezoneName": "America/Denver",
    "locationTimezoneOffetSec": -25200,
    "locationTimezoneOffsetString": "-07:00"
  },
  "United States, Washington, Seattle": {
    "locationLatitude": 39.715956,
    "locationLongitude": -96.999668,
    "locationCity": "United States",
    "locationCountry": "United States",
    "locationTimezoneName": "America/Denver",
    "locationTimezoneOffetSec": -25200,
    "locationTimezoneOffsetString": "-07:00"
  },
  "San Francisco, CA": {
    "locationLatitude": 37.778008,
    "locationLongitude": -122.431272,
    "locationCity": "San Francisco",
    "locationCountry": "United States",
    "locationTimezoneName": "America/Los_Angeles",
    "locationTimezoneOffetSec": -28800,
    "locationTimezoneOffsetString": "-08:00"
  },
  "Toronto, Ontario, Canada": {
    "locationLatitude": 43.64877,
    "locationLongitude": -79.38171,
    "locationCity": "Toronto",
    "locationCountry": "Canada",
    "locationTimezoneName": "America/Toronto",
    "locationTimezoneOffetSec": -18000,
    "locationTimezoneOffsetString": "-05:00"
  },
  "Mexico City, Mexico": {
    "locationLatitude": 19.371422,
    "locationLongitude": -99.150344,
    "locationCity": "Mexico City",
    "locationCountry": "Mexico",
    "locationTimezoneName": "America/Mexico_City",
    "locationTimezoneOffetSec": -21600,
    "locationTimezoneOffsetString": "-06:00"
  },
  "Pleasanton, California, USA HQ": {
    "locationLatitude": 37.669437,
    "locationLongitude": -121.885889,
    "locationCity": "Pleasanton",
    "locationCountry": "United States",
    "locationTimezoneName": "America/Los_Angeles",
    "locationTimezoneOffetSec": -28800,
    "locationTimezoneOffsetString": "-08:00"
  },
  "South San Francisco": {
    "locationLatitude": 37.653515,
    "locationLongitude": -122.344612,
    "locationCity": "South San Francisco",
    "locationCountry": "United States",
    "locationTimezoneName": "America/Los_Angeles",
    "locationTimezoneOffetSec": -28800,
    "locationTimezoneOffsetString": "-08:00"
  },
  "Austin": {
    "locationLatitude": 30.222346,
    "locationLongitude": -97.836521,
    "locationCity": "Austin",
    "locationCountry": "United States",
    "locationTimezoneName": "America/Denver",
    "locationTimezoneOffetSec": -25200,
    "locationTimezoneOffsetString": "-07:00"
  },
  "Dallas": {
    "locationLatitude": 32.736212,
    "locationLongitude": -96.784359,
    "locationCity": "Dallas",
    "locationCountry": "United States",
    "locationTimezoneName": "America/Indiana/Vincennes",
    "locationTimezoneOffetSec": -18000,
    "locationTimezoneOffsetString": "-05:00"
  },
  "Chicago": {
    "locationLatitude": 41.87897,
    "locationLongitude": -87.66063,
    "locationCity": "Chicago",
    "locationCountry": "United States",
    "locationTimezoneName": "America/Chicago",
    "locationTimezoneOffetSec": -21600,
    "locationTimezoneOffsetString": "-06:00"
  },
  "Atlanta": {
    "locationLatitude": 33.769805,
    "locationLongitude": -84.414581,
    "locationCity": "Atlanta",
    "locationCountry": "United States",
    "locationTimezoneName": "America/Kentucky/Monticello",
    "locationTimezoneOffetSec": -18000,
    "locationTimezoneOffsetString": "-05:00"
  },
  "Washington DC": {
    "locationLatitude": 38.82652,
    "locationLongitude": -77.01712,
    "locationCity": "Washington",
    "locationCountry": "United States",
    "locationTimezoneName": "America/New_York",
    "locationTimezoneOffetSec": -18000,
    "locationTimezoneOffsetString": "-05:00"
  },
  "Boston": {
    "locationLatitude": 42.355492,
    "locationLongitude": -71.048611,
    "locationCity": "Boston",
    "locationCountry": "United States",
    "locationTimezoneName": "America/New_York",
    "locationTimezoneOffetSec": -18000,
    "locationTimezoneOffsetString": "-05:00"
  },
  "Tel Aviv": {
    "locationLatitude": 32.066455,
    "locationLongitude": 34.783553,
    "locationCity": "Tel Aviv",
    "locationCountry": "Israel",
    "locationTimezoneName": "Asia/Jerusalem",
    "locationTimezoneOffetSec": 7200,
    "locationTimezoneOffsetString": "+02:00"
  },
  "New York City": {
    "locationLatitude": 40.68295,
    "locationLongitude": -73.9708,
    "locationCity": "New York",
    "locationCountry": "United States",
    "locationTimezoneName": "America/New_York",
    "locationTimezoneOffetSec": -18000,
    "locationTimezoneOffsetString": "-05:00"
  },
  "Washington D.C.": {
    "locationLatitude": 38.82652,
    "locationLongitude": -77.01712,
    "locationCity": "Washington",
    "locationCountry": "United States",
    "locationTimezoneName": "America/New_York",
    "locationTimezoneOffetSec": -18000,
    "locationTimezoneOffsetString": "-05:00"
  },
  "Paris": {
    "locationLatitude": 48.858705,
    "locationLongitude": 2.342865,
    "locationCity": "Paris",
    "locationCountry": "France",
    "locationTimezoneName": "Europe/Paris",
    "locationTimezoneOffetSec": 3600,
    "locationTimezoneOffsetString": "+01:00"
  },
  "Los Angeles": {
    "locationLatitude": 34.05513,
    "locationLongitude": -118.25703,
    "locationCity": "Los Angeles",
    "locationCountry": "United States",
    "locationTimezoneName": "America/Los_Angeles",
    "locationTimezoneOffetSec": -28800,
    "locationTimezoneOffsetString": "-08:00"
  },
  "San Diego": {
    "locationLatitude": 32.72793,
    "locationLongitude": -117.15529,
    "locationCity": "San Diego",
    "locationCountry": "United States",
    "locationTimezoneName": "America/Los_Angeles",
    "locationTimezoneOffetSec": -28800,
    "locationTimezoneOffsetString": "-08:00"
  },
  "San Fransisco": {
    "locationLatitude": 37.778008,
    "locationLongitude": -122.431272,
    "locationCity": "San Francisco",
    "locationCountry": "United States",
    "locationTimezoneName": "America/Los_Angeles",
    "locationTimezoneOffetSec": -28800,
    "locationTimezoneOffsetString": "-08:00"
  },
  "San Francisco": {
    "locationLatitude": 37.778008,
    "locationLongitude": -122.431272,
    "locationCity": "San Francisco",
    "locationCountry": "United States",
    "locationTimezoneName": "America/Los_Angeles",
    "locationTimezoneOffetSec": -28800,
    "locationTimezoneOffsetString": "-08:00"
  },
  "Bengaluru": {
    "locationLatitude": 12.96557,
    "locationLongitude": 77.60625,
    "locationCity": "Bangalore",
    "locationCountry": "India",
    "locationTimezoneName": "Asia/Kolkata",
    "locationTimezoneOffetSec": 19800,
    "locationTimezoneOffsetString": "+05:30"
  },
  "London": {
    "locationLatitude": 51.509648,
    "locationLongitude": -0.099076,
    "locationCity": "London",
    "locationCountry": "United Kingdom",
    "locationTimezoneName": "Europe/London",
    "locationTimezoneOffetSec": 0,
    "locationTimezoneOffsetString": "+00:00"
  },
  "Dublin": {
    "locationLatitude": 53.33928,
    "locationLongitude": -6.281314,
    "locationCity": "Dublin",
    "locationCountry": "Ireland",
    "locationTimezoneName": "Europe/Dublin",
    "locationTimezoneOffetSec": 0,
    "locationTimezoneOffsetString": "+00:00"
  },
  "Berlin": {
    "locationLatitude": 52.524932,
    "locationLongitude": 13.407032,
    "locationCity": "Berlin",
    "locationCountry": "Germany",
    "locationTimezoneName": "Europe/Berlin",
    "locationTimezoneOffetSec": 3600,
    "locationTimezoneOffsetString": "+01:00"
  },
  "Madrid": {
    "locationLatitude": 40.429913,
    "locationLongitude": -3.669245,
    "locationCity": "Madrid",
    "locationCountry": "Spain",
    "locationTimezoneName": "Europe/Madrid",
    "locationTimezoneOffetSec": 3600,
    "locationTimezoneOffsetString": "+01:00"
  },
  "Amsterdam": {
    "locationLatitude": 52.37243,
    "locationLongitude": 4.89973,
    "locationCity": "Amsterdam",
    "locationCountry": "Netherlands",
    "locationTimezoneName": "Europe/Amsterdam",
    "locationTimezoneOffetSec": 3600,
    "locationTimezoneOffsetString": "+01:00"
  },
  "Barcelona": {
    "locationLatitude": 41.400347,
    "locationLongitude": 2.159592,
    "locationCity": "Barcelona",
    "locationCountry": "Spain",
    "locationTimezoneName": "Europe/Madrid",
    "locationTimezoneOffetSec": 3600,
    "locationTimezoneOffsetString": "+01:00"
  },
  "São Paulo": {
    "locationLatitude": -23.570533,
    "locationLongitude": -46.663713,
    "locationCity": "São Paulo",
    "locationCountry": "Brazil",
    "locationTimezoneName": "America/Sao_Paulo",
    "locationTimezoneOffetSec": -10800,
    "locationTimezoneOffsetString": "-03:00"
  },
  "Brazil": {
    "locationLatitude": -11.928923,
    "locationLongitude": -49.542449,
    "locationCity": "Brazil",
    "locationCountry": "Brazil",
    "locationTimezoneName": "America/Araguaina",
    "locationTimezoneOffetSec": -10800,
    "locationTimezoneOffsetString": "-03:00"
  },
  "Düsseldorf": {
    "locationLatitude": 51.226297,
    "locationLongitude": 6.801324,
    "locationCity": "Dusseldorf",
    "locationCountry": "Germany",
    "locationTimezoneName": "Europe/Busingen",
    "locationTimezoneOffetSec": 3600,
    "locationTimezoneOffsetString": "+01:00"
  },
  "Frankfurt": {
    "locationLatitude": 50.041821,
    "locationLongitude": 8.584764,
    "locationCity": "Frankfurt",
    "locationCountry": "Germany",
    "locationTimezoneName": "Europe/Busingen",
    "locationTimezoneOffetSec": 3600,
    "locationTimezoneOffsetString": "+01:00"
  },
  "Hamburg": {
    "locationLatitude": 53.576158,
    "locationLongitude": 10.007046,
    "locationCity": "Hamburg",
    "locationCountry": "Germany",
    "locationTimezoneName": "Europe/Berlin",
    "locationTimezoneOffetSec": 3600,
    "locationTimezoneOffsetString": "+01:00"
  },
  "Munich": {
    "locationLatitude": 48.152126,
    "locationLongitude": 11.544467,
    "locationCity": "Munich",
    "locationCountry": "Germany",
    "locationTimezoneName": "Europe/Busingen",
    "locationTimezoneOffetSec": 3600,
    "locationTimezoneOffsetString": "+01:00"
  },
  "Stuttgart": {
    "locationLatitude": 48.70631,
    "locationLongitude": 9.11924,
    "locationCity": "Stuttgart",
    "locationCountry": "Germany",
    "locationTimezoneName": "Europe/Busingen",
    "locationTimezoneOffetSec": 3600,
    "locationTimezoneOffsetString": "+01:00"
  },
  "Stockholm": {
    "locationLatitude": 59.275254,
    "locationLongitude": 18.035164,
    "locationCity": "Stockholm",
    "locationCountry": "Sweden",
    "locationTimezoneName": "Europe/Stockholm",
    "locationTimezoneOffetSec": 3600,
    "locationTimezoneOffsetString": "+01:00"
  },
  "Rome": {
    "locationLatitude": 41.878243,
    "locationLongitude": 12.52809,
    "locationCity": "Rome",
    "locationCountry": "Italy",
    "locationTimezoneName": "Europe/Rome",
    "locationTimezoneOffetSec": 3600,
    "locationTimezoneOffsetString": "+01:00"
  },
  "Milan": {
    "locationLatitude": 45.473702,
    "locationLongitude": 9.170685,
    "locationCity": "Milan",
    "locationCountry": "Italy",
    "locationTimezoneName": "Europe/Rome",
    "locationTimezoneOffetSec": 3600,
    "locationTimezoneOffsetString": "+01:00"
  },
  "Mexico City": {
    "locationLatitude": 19.371422,
    "locationLongitude": -99.150344,
    "locationCity": "Mexico City",
    "locationCountry": "Mexico",
    "locationTimezoneName": "America/Mexico_City",
    "locationTimezoneOffetSec": -21600,
    "locationTimezoneOffsetString": "-06:00"
  },
  "San Francisco ": {
    "locationLatitude": 37.778008,
    "locationLongitude": -122.431272,
    "locationCity": "San Francisco",
    "locationCountry": "United States",
    "locationTimezoneName": "America/Los_Angeles",
    "locationTimezoneOffetSec": -28800,
    "locationTimezoneOffsetString": "-08:00"
  },
  "United States,": {
    "locationLatitude": 39.715956,
    "locationLongitude": -96.999668,
    "locationCity": "United States",
    "locationCountry": "United States",
    "locationTimezoneName": "America/Denver",
    "locationTimezoneOffetSec": -25200,
    "locationTimezoneOffsetString": "-07:00"
  },
  "United States -": {
    "locationLatitude": 39.715956,
    "locationLongitude": -96.999668,
    "locationCity": "United States",
    "locationCountry": "United States",
    "locationTimezoneName": "America/Denver",
    "locationTimezoneOffetSec": -25200,
    "locationTimezoneOffsetString": "-07:00"
  },
  "North America": {
    "locationLatitude": 38.309137,
    "locationLongitude": -101.328273,
    "locationCity": "North America",
    "locationCountry": null,
    "locationTimezoneName": "America/Denver",
    "locationTimezoneOffetSec": -25200,
    "locationTimezoneOffsetString": "-07:00"
  },
  "United States": {
    "locationLatitude": 39.715956,
    "locationLongitude": -96.999668,
    "locationCity": "United States",
    "locationCountry": "United States",
    "locationTimezoneName": "America/Denver",
    "locationTimezoneOffetSec": -25200,
    "locationTimezoneOffsetString": "-07:00"
  },
  "Canada": {
    "locationLatitude": 58.33747,
    "locationLongitude": -112.384858,
    "locationCity": "Canada",
    "locationCountry": "Canada",
    "locationTimezoneName": "America/Yellowknife",
    "locationTimezoneOffetSec": -25200,
    "locationTimezoneOffsetString": "-07:00"
  },
  "Phoenix": {
    "locationLatitude": 33.60503,
    "locationLongitude": -112.070892,
    "locationCity": "Phoenix",
    "locationCountry": "United States",
    "locationTimezoneName": "America/Phoenix",
    "locationTimezoneOffetSec": -25200,
    "locationTimezoneOffsetString": "-07:00"
  },
  "EMEA": {
    "locationLatitude": -2.2145,
    "locationLongitude": 121.5984,
    "locationCity": "Emea",
    "locationCountry": "Indonesia",
    "locationTimezoneName": "Asia/Makassar",
    "locationTimezoneOffetSec": 28800,
    "locationTimezoneOffsetString": "+08:00"
  },
  "United Kingdom": {
    "locationLatitude": 52.418788,
    "locationLongitude": -1.247349,
    "locationCity": "United Kingdom",
    "locationCountry": "United Kingdom",
    "locationTimezoneName": "Europe/London",
    "locationTimezoneOffetSec": 0,
    "locationTimezoneOffsetString": "+00:00"
  },
  "Serbia -": {
    "locationLatitude": 44.251791,
    "locationLongitude": 20.589197,
    "locationCity": "Serbia",
    "locationCountry": "Serbia",
    "locationTimezoneName": "Europe/Belgrade",
    "locationTimezoneOffetSec": 3600,
    "locationTimezoneOffsetString": "+01:00"
  },
  "Romania -": {
    "locationLatitude": 45.727469,
    "locationLongitude": 24.984652,
    "locationCity": "Romania",
    "locationCountry": "Romania",
    "locationTimezoneName": "Europe/Bucharest",
    "locationTimezoneOffetSec": 7200,
    "locationTimezoneOffsetString": "+02:00"
  },
  "Bulgaria -": {
    "locationLatitude": 42.501868,
    "locationLongitude": 25.176846,
    "locationCity": "Bulgaria",
    "locationCountry": "Bulgaria",
    "locationTimezoneName": "Europe/Sofia",
    "locationTimezoneOffetSec": 7200,
    "locationTimezoneOffsetString": "+02:00"
  },
  "New York -": {
    "locationLatitude": 40.68295,
    "locationLongitude": -73.9708,
    "locationCity": "New York",
    "locationCountry": "United States",
    "locationTimezoneName": "America/New_York",
    "locationTimezoneOffetSec": -18000,
    "locationTimezoneOffsetString": "-05:00"
  },
  "Palo Alto, CA, Detroit, MI, and Pittsburgh, PA": {
    "locationLatitude": 8.798114,
    "locationLongitude": -82.427849,
    "locationCountry": "Panama",
    "locationTimezoneName": "America/Panama",
    "locationTimezoneOffetSec": -18000,
    "locationTimezoneOffsetString": "-05:00"
  },
  "Dearborn, MI": {
    "locationLatitude": 42.305765,
    "locationLongitude": -83.226264,
    "locationCity": "Dearborn",
    "locationCountry": "United States",
    "locationTimezoneName": "America/Detroit",
    "locationTimezoneOffetSec": -18000,
    "locationTimezoneOffsetString": "-05:00"
  },
  "Pittsburgh, PA and Metro Detroit, MI and Palo Alto, CA and Cranbury, NJ": {
    "locationLatitude": 42.483493,
    "locationLongitude": -83.12581,
    "locationCountry": "United States",
    "locationTimezoneName": "America/Detroit",
    "locationTimezoneOffetSec": -18000,
    "locationTimezoneOffsetString": "-05:00"
  },
  "Pittsburgh, PA": {
    "locationLatitude": 40.450509,
    "locationLongitude": -79.936305,
    "locationCity": "Pittsburgh",
    "locationCountry": "United States",
    "locationTimezoneName": "America/Detroit",
    "locationTimezoneOffetSec": -18000,
    "locationTimezoneOffsetString": "-05:00"
  },
  "Pittsburgh, PA; Cranbury, NJ": {
    "locationLatitude": 40.450509,
    "locationLongitude": -79.936305,
    "locationCity": "Pittsburgh",
    "locationCountry": "United States",
    "locationTimezoneName": "America/Detroit",
    "locationTimezoneOffetSec": -18000,
    "locationTimezoneOffsetString": "-05:00"
  },
  "Pittsburgh, PA and Metro Detroit, MI and Palo Alto, CA and Austin, TX": {
    "locationLatitude": 42.483493,
    "locationLongitude": -83.12581,
    "locationCountry": "United States",
    "locationTimezoneName": "America/Detroit",
    "locationTimezoneOffetSec": -18000,
    "locationTimezoneOffsetString": "-05:00"
  },
  "Miami, FL": {
    "locationLatitude": 25.766368,
    "locationLongitude": -80.210268,
    "locationCity": "Miami",
    "locationCountry": "United States",
    "locationTimezoneName": "America/Kentucky/Monticello",
    "locationTimezoneOffetSec": -18000,
    "locationTimezoneOffsetString": "-05:00"
  },
  "Munich, Germany": {
    "locationLatitude": 48.152126,
    "locationLongitude": 11.544467,
    "locationCity": "Munich",
    "locationCountry": "Germany",
    "locationTimezoneName": "Europe/Busingen",
    "locationTimezoneOffetSec": 3600,
    "locationTimezoneOffsetString": "+01:00"
  },
  "Pittsburgh, PA and Palo Alto, CA": {
    "locationLatitude": 37.431169,
    "locationLongitude": -122.127302,
    "locationCity": "Palo Alto",
    "locationCountry": "United States",
    "locationTimezoneName": "America/Los_Angeles",
    "locationTimezoneOffetSec": -28800,
    "locationTimezoneOffsetString": "-08:00"
  },
  "Metro Detroit, MI": {
    "locationLatitude": 42.572926,
    "locationLongitude": -82.796632,
    "locationCountry": "United States",
    "locationTimezoneName": "America/Detroit",
    "locationTimezoneOffetSec": -18000,
    "locationTimezoneOffsetString": "-05:00"
  },
  "Pittsburgh, PA, Metro Detroit, MI and Palo Alto, CA": {
    "locationLatitude": 42.572926,
    "locationLongitude": -82.796632,
    "locationCountry": "United States",
    "locationTimezoneName": "America/Detroit",
    "locationTimezoneOffetSec": -18000,
    "locationTimezoneOffsetString": "-05:00"
  },
  "Pittsburgh, PA and Palo Alto, CA and": {
    "locationLatitude": 37.431169,
    "locationLongitude": -122.127302,
    "locationCity": "Palo Alto",
    "locationCountry": "United States",
    "locationTimezoneName": "America/Los_Angeles",
    "locationTimezoneOffetSec": -28800,
    "locationTimezoneOffsetString": "-08:00"
  },
  "Pittsburgh, PA or Palo Alto, CA or": {
    "locationLatitude": 8.80202,
    "locationLongitude": -82.425267,
    "locationCountry": "Panama",
    "locationTimezoneName": "America/Panama",
    "locationTimezoneOffetSec": -18000,
    "locationTimezoneOffsetString": "-05:00"
  },
  "Irving, Texas, United States, Newark, New Jersey, United States, Newnan, Georgia, United States": {
    "locationLatitude": 32.81402,
    "locationLongitude": -96.94889,
    "locationCity": "Irving",
    "locationCountry": "United States",
    "locationTimezoneName": "America/Denver",
    "locationTimezoneOffetSec": -25200,
    "locationTimezoneOffsetString": "-07:00"
  },
  "- US": {
    "locationLatitude": 39.715956,
    "locationLongitude": -96.999668,
    "locationCity": "United States",
    "locationCountry": "United States",
    "locationTimezoneName": "America/Denver",
    "locationTimezoneOffetSec": -25200,
    "locationTimezoneOffsetString": "-07:00"
  },
  "Guadalajara, MX": {
    "locationLatitude": 20.673618,
    "locationLongitude": -103.351266,
    "locationCity": "Guadalajara",
    "locationCountry": "Mexico",
    "locationTimezoneName": "America/Bahia_Banderas",
    "locationTimezoneOffetSec": -21600,
    "locationTimezoneOffsetString": "-06:00"
  },
  "Scottsdale, AZ": {
    "locationLatitude": 33.687647,
    "locationLongitude": -111.856562,
    "locationCity": "Scottsdale",
    "locationCountry": "United States",
    "locationTimezoneName": "America/Phoenix",
    "locationTimezoneOffetSec": -25200,
    "locationTimezoneOffsetString": "-07:00"
  },
  "Phoenix Headquarters": {
    "locationLatitude": 33.44858,
    "locationLongitude": -112.08199,
    "locationCountry": "United States",
    "locationTimezoneName": "America/Phoenix",
    "locationTimezoneOffetSec": -25200,
    "locationTimezoneOffsetString": "-07:00"
  },
  "Pheonix, AZ": {
    "locationLatitude": 40.402387,
    "locationLongitude": 47.210994,
    "locationCity": "Azerbaijan",
    "locationCountry": "Azerbaijan",
    "locationTimezoneName": "Asia/Baku",
    "locationTimezoneOffetSec": 14400,
    "locationTimezoneOffsetString": "+04:00"
  },
  "Heath, OH": {
    "locationLatitude": 40.02888,
    "locationLongitude": -82.44719,
    "locationCity": "Heath",
    "locationCountry": "United States",
    "locationTimezoneName": "America/Detroit",
    "locationTimezoneOffetSec": -18000,
    "locationTimezoneOffsetString": "-05:00"
  },
  "Cleveland, OH": {
    "locationLatitude": 41.496551,
    "locationLongitude": -81.65133,
    "locationCity": "Cleveland",
    "locationCountry": "United States",
    "locationTimezoneName": "America/Detroit",
    "locationTimezoneOffetSec": -18000,
    "locationTimezoneOffsetString": "-05:00"
  },
  "Phoenix, AZ": {
    "locationLatitude": 33.60503,
    "locationLongitude": -112.070892,
    "locationCity": "Phoenix",
    "locationCountry": "United States",
    "locationTimezoneName": "America/Phoenix",
    "locationTimezoneOffetSec": -25200,
    "locationTimezoneOffsetString": "-07:00"
  },
  "Atlanta, GA": {
    "locationLatitude": 33.769805,
    "locationLongitude": -84.414581,
    "locationCity": "Atlanta",
    "locationCountry": "United States",
    "locationTimezoneName": "America/Kentucky/Monticello",
    "locationTimezoneOffetSec": -18000,
    "locationTimezoneOffsetString": "-05:00"
  },
  "Tempe, AZ": {
    "locationLatitude": 33.403229,
    "locationLongitude": -111.923357,
    "locationCity": "Tempe",
    "locationCountry": "United States",
    "locationTimezoneName": "America/Phoenix",
    "locationTimezoneOffetSec": -25200,
    "locationTimezoneOffsetString": "-07:00"
  },
  "Palo Alto": {
    "locationLatitude": 37.431169,
    "locationLongitude": -122.127302,
    "locationCity": "Palo Alto",
    "locationCountry": "United States",
    "locationTimezoneName": "America/Los_Angeles",
    "locationTimezoneOffetSec": -28800,
    "locationTimezoneOffsetString": "-08:00"
  },
  "CA": {
    "locationLatitude": 36.531544,
    "locationLongitude": -119.586168,
    "locationCity": "California",
    "locationCountry": "United States",
    "locationTimezoneName": "America/Los_Angeles",
    "locationTimezoneOffetSec": -28800,
    "locationTimezoneOffsetString": "-08:00"
  },
  "Detroit": {
    "locationLatitude": 42.398649,
    "locationLongitude": -83.164515,
    "locationCity": "Detroit",
    "locationCountry": "United States",
    "locationTimezoneName": "America/Detroit",
    "locationTimezoneOffetSec": -18000,
    "locationTimezoneOffsetString": "-05:00"
  },
  "MI": {
    "locationLatitude": 43.924812,
    "locationLongitude": -84.633107,
    "locationCity": "Michigan",
    "locationCountry": "United States",
    "locationTimezoneName": "America/Detroit",
    "locationTimezoneOffetSec": -18000,
    "locationTimezoneOffsetString": "-05:00"
  },
  "and Pittsburgh": {
    "locationLatitude": 40.440917,
    "locationLongitude": -79.957296,
    "locationCountry": "United States",
    "locationTimezoneName": "America/Detroit",
    "locationTimezoneOffetSec": -18000,
    "locationTimezoneOffsetString": "-05:00"
  },
  "PA": {
    "locationLatitude": 40.860198,
    "locationLongitude": -77.838617,
    "locationCity": "Pennsylvania",
    "locationCountry": "United States",
    "locationTimezoneName": "America/New_York",
    "locationTimezoneOffetSec": -18000,
    "locationTimezoneOffsetString": "-05:00"
  },
  "Dearborn": {
    "locationLatitude": 42.305765,
    "locationLongitude": -83.226264,
    "locationCity": "Dearborn",
    "locationCountry": "United States",
    "locationTimezoneName": "America/Detroit",
    "locationTimezoneOffetSec": -18000,
    "locationTimezoneOffsetString": "-05:00"
  },
  "Pittsburgh": {
    "locationLatitude": 40.450509,
    "locationLongitude": -79.936305,
    "locationCity": "Pittsburgh",
    "locationCountry": "United States",
    "locationTimezoneName": "America/Detroit",
    "locationTimezoneOffetSec": -18000,
    "locationTimezoneOffsetString": "-05:00"
  },
  "PA and Metro Detroit": {
    "locationLatitude": 42.33085,
    "locationLongitude": -83.064148,
    "locationCountry": "United States",
    "locationTimezoneName": "America/Detroit",
    "locationTimezoneOffetSec": -18000,
    "locationTimezoneOffsetString": "-05:00"
  },
  "MI and Palo Alto": {
    "locationLatitude": 37.443496,
    "locationLongitude": -122.144631,
    "locationCountry": "United States",
    "locationTimezoneName": "America/Los_Angeles",
    "locationTimezoneOffetSec": -28800,
    "locationTimezoneOffsetString": "-08:00"
  },
  "CA and Cranbury": {
    "locationLatitude": 34.886275,
    "locationLongitude": -92.108706,
    "locationCountry": "United States",
    "locationTimezoneName": "America/Indiana/Vincennes",
    "locationTimezoneOffetSec": -18000,
    "locationTimezoneOffsetString": "-05:00"
  },
  "NJ": {
    "locationLatitude": 39.66502,
    "locationLongitude": -74.738208,
    "locationCity": "New Jersey",
    "locationCountry": "United States",
    "locationTimezoneName": "America/New_York",
    "locationTimezoneOffetSec": -18000,
    "locationTimezoneOffsetString": "-05:00"
  },
  "PA; Cranbury": {
    "locationLatitude": 22.34023,
    "locationLongitude": 103.84415,
    "locationCity": "Sa Pa",
    "locationCountry": "Vietnam",
    "locationTimezoneName": "Asia/Ho_Chi_Minh",
    "locationTimezoneOffetSec": 25200,
    "locationTimezoneOffsetString": "+07:00"
  },
  "CA and Austin": {
    "locationLatitude": 32.733325,
    "locationLongitude": -116.963515,
    "locationCountry": "United States",
    "locationTimezoneName": "America/Los_Angeles",
    "locationTimezoneOffetSec": -28800,
    "locationTimezoneOffsetString": "-08:00"
  },
  "TX": {
    "locationLatitude": 31.030974,
    "locationLongitude": -98.326329,
    "locationCity": "Texas",
    "locationCountry": "United States",
    "locationTimezoneName": "America/Denver",
    "locationTimezoneOffetSec": -25200,
    "locationTimezoneOffsetString": "-07:00"
  },
  "Miami": {
    "locationLatitude": 10.96389,
    "locationLongitude": -74.79639,
    "locationCity": "Barranquilla",
    "locationCountry": "Colombia",
    "locationTimezoneName": "America/Bogota",
    "locationTimezoneOffetSec": -18000,
    "locationTimezoneOffsetString": "-05:00"
  },
  "FL": {
    "locationLatitude": 27.97762,
    "locationLongitude": -81.769611,
    "locationCity": "Florida",
    "locationCountry": "United States",
    "locationTimezoneName": "America/Kentucky/Monticello",
    "locationTimezoneOffetSec": -18000,
    "locationTimezoneOffsetString": "-05:00"
  },
  "Germany": {
    "locationLatitude": 50.970097,
    "locationLongitude": 9.687096,
    "locationCity": "Germany",
    "locationCountry": "Germany",
    "locationTimezoneName": "Europe/Berlin",
    "locationTimezoneOffetSec": 3600,
    "locationTimezoneOffsetString": "+01:00"
  },
  "PA and Palo Alto": {
    "locationLatitude": 37.431169,
    "locationLongitude": -122.127302,
    "locationCity": "Palo Alto",
    "locationCountry": "United States",
    "locationTimezoneName": "America/Los_Angeles",
    "locationTimezoneOffetSec": -28800,
    "locationTimezoneOffsetString": "-08:00"
  },
  "Metro Detroit": {
    "locationLatitude": 41.222489,
    "locationLongitude": -95.837824,
    "locationCountry": "United States",
    "locationTimezoneName": "America/Chicago",
    "locationTimezoneOffetSec": -21600,
    "locationTimezoneOffsetString": "-06:00"
  },
  "CA and": {
    "locationLatitude": 9.166537,
    "locationLongitude": 105.181763,
    "locationCity": "Ca Mau",
    "locationCountry": "Vietnam",
    "locationTimezoneName": "Asia/Ho_Chi_Minh",
    "locationTimezoneOffetSec": 25200,
    "locationTimezoneOffsetString": "+07:00"
  },
  "PA or Palo Alto": {
    "locationLatitude": 8.80202,
    "locationLongitude": -82.425267,
    "locationCountry": "Panama",
    "locationTimezoneName": "America/Panama",
    "locationTimezoneOffetSec": -18000,
    "locationTimezoneOffsetString": "-05:00"
  },
  "CA or": {
    "locationLatitude": 9.166537,
    "locationLongitude": 105.181763,
    "locationCity": "Ca Mau",
    "locationCountry": "Vietnam",
    "locationTimezoneName": "Asia/Ho_Chi_Minh",
    "locationTimezoneOffetSec": 25200,
    "locationTimezoneOffsetString": "+07:00"
  }
}